time,.header.seq,.header.stamp.secs,.header.stamp.nsecs,.header.frame_id,.pose.pose.position.x,.pose.pose.position.y,.pose.pose.position.z,.pose.pose.orientation.x,.pose.pose.orientation.y,.pose.pose.orientation.z,.pose.pose.orientation.w,.pose.covariance
1975/03/10/09:57:49.993503,270,163645069,993503132,map,-25869.6261582,-93280.6712351,1.55207324028,-0.00114102813738,0.00135154030913,0.767611759692,0.640912675625,"(0.0004452955139459263, -4.466920034828769e-05, 0.0, 0.0, 0.0, -4.36653272983457e-05, -4.466920034828771e-05, 0.0006901600069532642, 0.0, 0.0, 0.0, -7.549102652847787e-06, 0.0, 0.0, 0.0, 0.0, 0.0, 0.0, 0.0, 0.0, 0.0, 0.0, 0.0, 0.0, 0.0, 0.0, 0.0, 0.0, 0.0, 0.0, -4.366532729834572e-05, -7.54910265284779e-06, 0.0, 0.0, 0.0, 4.608689897112163e-05)"
1975/03/10/09:57:50.009590,271,163645070,9589836,map,-25869.6376359,-93280.6078,1.55207324028,-0.00114139502592,0.00135123048082,0.767785733221,0.640704252566,"(0.00044642148473312155, -4.556811956569212e-05, 0.0, 0.0, 0.0, -4.397081694782011e-05, -4.556811956569215e-05, 0.0006953565125643467, 0.0, 0.0, 0.0, -7.6241971713691156e-06, 0.0, 0.0, 0.0, 0.0, 0.0, 0.0, 0.0, 0.0, 0.0, 0.0, 0.0, 0.0, 0.0, 0.0, 0.0, 0.0, 0.0, 0.0, -4.3970816947820144e-05, -7.624197171369119e-06, 0.0, 0.0, 0.0, 4.612538875457443e-05)"
1975/03/10/09:57:50.033720,272,163645070,33719717,map,-25869.6491223,-93280.5436716,1.54772675037,-0.000813506165849,0.00109215930479,0.767947522388,0.640511317818,"(0.0004453099509733409, -4.476088531819147e-05, 0.0, 0.0, 0.0, -4.3894910860922315e-05, -4.4760885318191504e-05, 0.0006891753934161061, 0.0, 0.0, 0.0, -7.634770693427093e-06, 0.0, 0.0, 0.0, 0.0, 0.0, 0.0, 0.0, 0.0, 0.0, 0.0, 0.0, 0.0, 0.0, 0.0, 0.0, 0.0, 0.0, 0.0, -4.3894910860922356e-05, -7.634770693427098e-06, 0.0, 0.0, 0.0, 4.603264342079799e-05)"
1975/03/10/09:57:50.049772,273,163645070,49772215,map,-25869.660719,-93280.4791736,1.54772675037,-0.000813787377621,0.00109194978499,0.768112433121,0.640313544665,"(0.00044475910760401264, -4.4406684072422644e-05, 0.0, 0.0, 0.0, -4.392942249100614e-05, -4.440668407242268e-05, 0.0006859745704360269, 0.0, 0.0, 0.0, -7.664166589705953e-06, 0.0, 0.0, 0.0, 0.0, 0.0, 0.0, 0.0, 0.0, 0.0, 0.0, 0.0, 0.0, 0.0, 0.0, 0.0, 0.0, 0.0, 0.0, -4.392942249100619e-05, -7.664166589705956e-06, 0.0, 0.0, 0.0, 4.5976545996816445e-05)"
1975/03/10/09:57:50.073902,274,163645070,73901862,map,-25869.6724324,-93280.4142731,1.54772675037,-0.000814068807202,0.00109173999013,0.768277452266,0.640115537802,"(0.0004447642972910927, -4.4530790338209485e-05, 0.0, 0.0, 0.0, -4.406923154273366e-05, -4.453079033820952e-05, 0.0006858722490427576, 0.0, 0.0, 0.0, -7.711637738103052e-06, 0.0, 0.0, 0.0, 0.0, 0.0, 0.0, 0.0, 0.0, 0.0, 0.0, 0.0, 0.0, 0.0, 0.0, 0.0, 0.0, 0.0, 0.0, -4.4069231542733704e-05, -7.711637738103057e-06, 0.0, 0.0, 0.0, 4.595489389207369e-05)"
1975/03/10/09:57:50.089987,275,163645070,89987198,map,-25869.6842643,-93280.3489583,1.54772675037,-0.000814352507638,0.00109152838819,0.768443783381,0.639915851639,"(0.00044530497417115254, -4.509196994792691e-05, 0.0, 0.0, 0.0, -4.4308741925762996e-05, -4.509196994792694e-05, 0.0006886183472237159, 0.0, 0.0, 0.0, -7.776408565736688e-06, 0.0, 0.0, 0.0, 0.0, 0.0, 0.0, 0.0, 0.0, 0.0, 0.0, 0.0, 0.0, 0.0, 0.0, 0.0, 0.0, 0.0, 0.0, -4.4308741925763044e-05, -7.776408565736693e-06, 0.0, 0.0, 0.0, 4.596485594598049e-05)"
1975/03/10/09:57:50.114118,276,163645070,114117963,map,-25869.6962154,-93280.2832266,1.54772675037,-0.00081463532367,0.00109131733164,0.768609576409,0.639716706401,"(0.0004463576781757053, -4.603371251153882e-05, 0.0, 0.0, 0.0, -4.464280547477171e-05, -4.603371251153885e-05, 0.0006938801546006954, 0.0, 0.0, 0.0, -7.857793124786268e-06, 0.0, 0.0, 0.0, 0.0, 0.0, 0.0, 0.0, 0.0, 0.0, 0.0, 0.0, 0.0, 0.0, 0.0, 0.0, 0.0, 0.0, 0.0, -4.4642805474771765e-05, -7.857793124786273e-06, 0.0, 0.0, 0.0, 4.60039950487111e-05)"
1975/03/10/09:57:50.130196,277,163645070,130195651,map,-25869.7084612,-93280.2168783,1.54699683189,-0.0007108739119,0.00097893613458,0.768788158411,0.639502387665,"(0.0004451487120255638, -4.527336241754806e-05, 0.0, 0.0, 0.0, -4.458222919461806e-05, -4.5273362417548085e-05, 0.0006878833611540467, 0.0, 0.0, 0.0, -7.870707820394066e-06, 0.0, 0.0, 0.0, 0.0, 0.0, 0.0, 0.0, 0.0, 0.0, 0.0, 0.0, 0.0, 0.0, 0.0, 0.0, 0.0, 0.0, 0.0, -4.458222919461811e-05, -7.870707820394071e-06, 0.0, 0.0, 0.0, 4.5910017281241284e-05)"
1975/03/10/09:57:50.154323,278,163645070,154323373,map,-25869.7214433,-93280.1467745,1.54699683189,-0.000711167886032,0.000978722591996,0.768980186995,0.639271466868,"(0.00044513281823346096, -4.5367937794150835e-05, 0.0, 0.0, 0.0, -4.474368863429874e-05, -4.536793779415086e-05, 0.0006875634584757093, 0.0, 0.0, 0.0, -7.922549698378373e-06, 0.0, 0.0, 0.0, 0.0, 0.0, 0.0, 0.0, 0.0, 0.0, 0.0, 0.0, 0.0, 0.0, 0.0, 0.0, 0.0, 0.0, 0.0, -4.4743688634298804e-05, -7.922549698378377e-06, 0.0, 0.0, 0.0, 4.588610654388118e-05)"
1975/03/10/09:57:50.170410,279,163645070,170409508,map,-25869.7338836,-93280.0798094,1.54699683189,-0.000711467653365,0.000978504702299,0.769175971504,0.639035884128,"(0.00044514216208190187, -4.55027621517512e-05, 0.0, 0.0, 0.0, -4.491366078357905e-05, -4.550276215175123e-05, 0.0006874729948512866, 0.0, 0.0, 0.0, -7.97629779844099e-06, 0.0, 0.0, 0.0, 0.0, 0.0, 0.0, 0.0, 0.0, 0.0, 0.0, 0.0, 0.0, 0.0, 0.0, 0.0, 0.0, 0.0, 0.0, -4.491366078357911e-05, -7.976297798440993e-06, 0.0, 0.0, 0.0, 4.586251155826577e-05)"
1975/03/10/09:57:50.194502,280,163645070,194502148,map,-25869.7470226,-93280.0093254,1.54699683189,-0.00071176604031,0.000978287676539,0.769370826068,0.638801274527,"(0.0004462013572866441, -4.645443786963452e-05, 0.0, 0.0, 0.0, -4.527475442824482e-05, -4.645443786963453e-05, 0.0006926878825409695, 0.0, 0.0, 0.0, -8.063902661839044e-06, 0.0, 0.0, 0.0, 0.0, 0.0, 0.0, 0.0, 0.0, 0.0, 0.0, 0.0, 0.0, 0.0, 0.0, 0.0, 0.0, 0.0, 0.0, -4.5274754428244886e-05, -8.063902661839046e-06, 0.0, 0.0, 0.0, 4.5901390648578406e-05)"
1975/03/10/09:57:50.210589,281,163645070,210589380,map,-25869.7597146,-93279.9414688,1.54699683189,-0.000712073260633,0.000978064080568,0.769571419454,0.638559603093,"(0.00044726311794250216, -4.7377750547226824e-05, 0.0, 0.0, 0.0, -4.563972941481673e-05, -4.737775054722683e-05, 0.000697731142043724, 0.0, 0.0, 0.0, -8.15287839582994e-06, 0.0, 0.0, 0.0, 0.0, 0.0, 0.0, 0.0, 0.0, 0.0, 0.0, 0.0, 0.0, 0.0, 0.0, 0.0, 0.0, 0.0, 0.0, -4.563972941481679e-05, -8.152878395829942e-06, 0.0, 0.0, 0.0, 4.5938030659337183e-05)"
1975/03/10/09:57:50.234718,282,163645070,234718016,map,-25869.7721348,-93279.873565,1.54574906826,-0.000526143353113,0.000791262031409,0.769751119371,0.638343411735,"(0.00044609116154458757, -4.654650987813722e-05, 0.0, 0.0, 0.0, -4.5602912809913446e-05, -4.6546509878137214e-05, 0.0006912269206939657, 0.0, 0.0, 0.0, -8.168053837100089e-06, 0.0, 0.0, 0.0, 0.0, 0.0, 0.0, 0.0, 0.0, 0.0, 0.0, 0.0, 0.0, 0.0, 0.0, 0.0, 0.0, 0.0, 0.0, -4.560291280991351e-05, -8.168053837100092e-06, 0.0, 0.0, 0.0, 4.58391243467255e-05)"
1975/03/10/09:57:50.250804,283,163645070,250804430,map,-25869.7846789,-93279.8053041,1.54574906826,-0.000526367808548,0.000791112735644,0.769932182846,0.638125011965,"(0.0004454851368746305, -4.618328599508234e-05, 0.0, 0.0, 0.0, -4.567872896299532e-05, -4.618328599508234e-05, 0.0006877348116053598, 0.0, 0.0, 0.0, -8.203905769451283e-06, 0.0, 0.0, 0.0, 0.0, 0.0, 0.0, 0.0, 0.0, 0.0, 0.0, 0.0, 0.0, 0.0, 0.0, 0.0, 0.0, 0.0, 0.0, -4.567872896299538e-05, -8.203905769451287e-06, 0.0, 0.0, 0.0, 4.5777980960256566e-05)"
1975/03/10/09:57:50.274933,284,163645070,274932761,map,-25869.7980056,-93279.7332121,1.54574906826,-0.000526596411562,0.000790960586694,0.770116563511,0.637902481327,"(0.00044599563255814375, -4.671526740036544e-05, 0.0, 0.0, 0.0, -4.596202480252477e-05, -4.6715267400365436e-05, 0.0006899955319769224, 0.0, 0.0, 0.0, -8.27754040224681e-06, 0.0, 0.0, 0.0, 0.0, 0.0, 0.0, 0.0, 0.0, 0.0, 0.0, 0.0, 0.0, 0.0, 0.0, 0.0, 0.0, 0.0, 0.0, -4.596202480252483e-05, -8.277540402246817e-06, 0.0, 0.0, 0.0, 4.5784451145100336e-05)"
1975/03/10/09:57:50.291016,285,163645070,291015709,map,-25869.8108062,-93279.6641836,1.54574906826,-0.000526822283374,0.000790810161869,0.770298712975,0.637682514945,"(0.00044653354864567635, -4.726249593022535e-05, 0.0, 0.0, 0.0, -4.6251928026510925e-05, -4.7262495930225335e-05, 0.0006923607633954352, 0.0, 0.0, 0.0, -8.353018736563781e-06, 0.0, 0.0, 0.0, 0.0, 0.0, 0.0, 0.0, 0.0, 0.0, 0.0, 0.0, 0.0, 0.0, 0.0, 0.0, 0.0, 0.0, 0.0, -4.625192802651098e-05, -8.35301873656379e-06, 0.0, 0.0, 0.0, 4.578975952756808e-05)"
1975/03/10/09:57:50.315217,286,163645070,315217050,map,-25869.8243359,-93279.5916086,1.54574906826,-0.000527055855371,0.000790654510955,0.770487042446,0.637454950958,"(0.00044810386537553186, -4.8561937399693524e-05, 0.0, 0.0, 0.0, -4.6730048594251474e-05, -4.856193739969351e-05, 0.0006996295556178798, 0.0, 0.0, 0.0, -8.463081898805273e-06, 0.0, 0.0, 0.0, 0.0, 0.0, 0.0, 0.0, 0.0, 0.0, 0.0, 0.0, 0.0, 0.0, 0.0, 0.0, 0.0, 0.0, 0.0, -4.6730048594251515e-05, -8.463081898805283e-06, 0.0, 0.0, 0.0, 4.585483230588302e-05)"
1975/03/10/09:57:50.331304,287,163645070,331303625,map,-25869.8375564,-93279.5215162,1.54418706894,-0.000394367635217,0.000646371049647,0.770680782612,0.637220964809,"(0.000446833538879459, -4.7669778886624855e-05, 0.0, 0.0, 0.0, -4.669402894029976e-05, -4.766977888662485e-05, 0.000692979575023167, 0.0, 0.0, 0.0, -8.48353448485156e-06, 0.0, 0.0, 0.0, 0.0, 0.0, 0.0, 0.0, 0.0, 0.0, 0.0, 0.0, 0.0, 0.0, 0.0, 0.0, 0.0, 0.0, 0.0, -4.669402894029982e-05, -8.48353448485157e-06, 0.0, 0.0, 0.0, 4.575001353026996e-05)"
1975/03/10/09:57:50.347355,288,163645070,347354690,map,-25869.8509171,-93279.4509635,1.54418706894,-0.000394561119331,0.000646252960257,0.770871510635,0.63699022031,"(0.00044619167556986125, -4.724966245648694e-05, 0.0, 0.0, 0.0, -4.678147066851685e-05, -4.7249662456486925e-05, 0.0006893587021398569, 0.0, 0.0, 0.0, -8.526444064396448e-06, 0.0, 0.0, 0.0, 0.0, 0.0, 0.0, 0.0, 0.0, 0.0, 0.0, 0.0, 0.0, 0.0, 0.0, 0.0, 0.0, 0.0, 0.0, -4.6781470668516915e-05, -8.526444064396456e-06, 0.0, 0.0, 0.0, 4.5683869965187274e-05)"
1975/03/10/09:57:50.371456,289,163645070,371455696,map,-25869.8643779,-93279.3801538,1.54418706894,-0.000394762964838,0.000646129682897,0.771070444457,0.6367493984,"(0.00044615447429340575, -4.73312151750806e-05, 0.0, 0.0, 0.0, -4.698375324227387e-05, -4.733121517508059e-05, 0.0006888813304075584, 0.0, 0.0, 0.0, -8.59030181124634e-06, 0.0, 0.0, 0.0, 0.0, 0.0, 0.0, 0.0, 0.0, 0.0, 0.0, 0.0, 0.0, 0.0, 0.0, 0.0, 0.0, 0.0, 0.0, -4.698375324227394e-05, -8.590301811246348e-06, 0.0, 0.0, 0.0, 4.565391672579201e-05)"
1975/03/10/09:57:50.387540,290,163645070,387539898,map,-25869.8779933,-93279.3088124,1.54418706894,-0.000394958575508,0.00064601013085,0.771263197809,0.636515912122,"(0.00044665272964935636, -4.787979756349207e-05, 0.0, 0.0, 0.0, -4.728720488148927e-05, -4.787979756349206e-05, 0.0006912900414394368, 0.0, 0.0, 0.0, -8.672796316938541e-06, 0.0, 0.0, 0.0, 0.0, 0.0, 0.0, 0.0, 0.0, 0.0, 0.0, 0.0, 0.0, 0.0, 0.0, 0.0, 0.0, 0.0, 0.0, -4.728720488148935e-05, -8.672796316938551e-06, 0.0, 0.0, 0.0, 4.565708796181413e-05)"
1975/03/10/09:57:50.411669,291,163645070,411669234,map,-25869.8917519,-93279.2369931,1.54418706894,-0.000395155732497,0.000645889551397,0.771457439442,0.636280477312,"(0.00044771654168906174, -4.8824916273645545e-05, 0.0, 0.0, 0.0, -4.7694948467855166e-05, -4.882491627364553e-05, 0.0006962484628145572, 0.0, 0.0, 0.0, -8.774744737215398e-06, 0.0, 0.0, 0.0, 0.0, 0.0, 0.0, 0.0, 0.0, 0.0, 0.0, 0.0, 0.0, 0.0, 0.0, 0.0, 0.0, 0.0, 0.0, -4.769494846785524e-05, -8.774744737215408e-06, 0.0, 0.0, 0.0, 4.569074624020376e-05)"
1975/03/10/09:57:50.427757,292,163645070,427756870,map,-25869.9055692,-93279.1655097,1.54705429077,-0.000314584819229,0.0006630501978,0.771664612769,0.636029234234,"(0.0004464943751571301, -4.7911041607684674e-05, 0.0, 0.0, 0.0, -4.767614337532904e-05, -4.791104160768466e-05, 0.0006898655894130915, 0.0, 0.0, 0.0, -8.804924548189856e-06, 0.0, 0.0, 0.0, 0.0, 0.0, 0.0, 0.0, 0.0, 0.0, 0.0, 0.0, 0.0, 0.0, 0.0, 0.0, 0.0, 0.0, 0.0, -4.767614337532911e-05, -8.804924548189864e-06, 0.0, 0.0, 0.0, 4.558363448488402e-05)"
1975/03/10/09:57:50.451888,293,163645070,451887561,map,-25869.9194957,-93279.0937274,1.54705429077,-0.000314800940312,0.000662947615782,0.771871901408,0.63577765706,"(0.00044589715716855405, -4.747963804256512e-05, 0.0, 0.0, 0.0, -4.778118257243084e-05, -4.747963804256511e-05, 0.0006864839273125716, 0.0, 0.0, 0.0, -8.857124889532957e-06, 0.0, 0.0, 0.0, 0.0, 0.0, 0.0, 0.0, 0.0, 0.0, 0.0, 0.0, 0.0, 0.0, 0.0, 0.0, 0.0, 0.0, 0.0, -4.778118257243091e-05, -8.857124889532965e-06, 0.0, 0.0, 0.0, 4.5515777053976395e-05)"
1975/03/10/09:57:50.467938,294,163645070,467938070,map,-25869.9335484,-93279.0215592,1.54705429077,-0.000315019682277,0.000662843701841,0.772081652961,0.635522920564,"(0.0004458694245537573, -4.7566080340685613e-05, 0.0, 0.0, 0.0, -4.799612355124763e-05, -4.756608034068559e-05, 0.000686215063755551, 0.0, 0.0, 0.0, -8.928935263986069e-06, 0.0, 0.0, 0.0, 0.0, 0.0, 0.0, 0.0, 0.0, 0.0, 0.0, 0.0, 0.0, 0.0, 0.0, 0.0, 0.0, 0.0, 0.0, -4.799612355124769e-05, -8.928935263986076e-06, 0.0, 0.0, 0.0, 4.5484605783452664e-05)"
1975/03/10/09:57:50.492067,295,163645070,492066891,map,-25869.9477732,-93278.9487735,1.54705429077,-0.00031524963561,0.0006627343665,0.772302099894,0.635255010134,"(0.0004464030045674848, -4.812302004879419e-05, 0.0, 0.0, 0.0, -4.831693806057506e-05, -4.812302004879416e-05, 0.000688805887706823, 0.0, 0.0, 0.0, -9.01998506146117e-06, 0.0, 0.0, 0.0, 0.0, 0.0, 0.0, 0.0, 0.0, 0.0, 0.0, 0.0, 0.0, 0.0, 0.0, 0.0, 0.0, 0.0, 0.0, -4.831693806057512e-05, -9.019985061461177e-06, 0.0, 0.0, 0.0, 4.548698689208582e-05)"
1975/03/10/09:57:50.508134,296,163645070,508134378,map,-25869.9621195,-93278.8756473,1.54705429077,-0.000315475780178,0.000662626746679,0.772518840318,0.634991419434,"(0.0004475183055497208, -4.908127270522845e-05, 0.0, 0.0, 0.0, -4.8745183888853494e-05, -4.908127270522842e-05, 0.0006939226198385377, 0.0, 0.0, 0.0, -9.131053317260303e-06, 0.0, 0.0, 0.0, 0.0, 0.0, 0.0, 0.0, 0.0, 0.0, 0.0, 0.0, 0.0, 0.0, 0.0, 0.0, 0.0, 0.0, 0.0, -4.8745183888853555e-05, -9.131053317260312e-06, 0.0, 0.0, 0.0, 4.552022458568937e-05)"
1975/03/10/09:57:50.532267,297,163645070,532267295,map,-25869.9769587,-93278.8017837,1.54634523392,-0.000184060848107,0.000620194655759,0.772754014997,0.6347052968,"(0.00044629459006533494, -4.824607779966098e-05, 0.0, 0.0, 0.0, -4.872824837330634e-05, -4.824607779966096e-05, 0.0006876022501173608, 0.0, 0.0, 0.0, -9.155311769850433e-06, 0.0, 0.0, 0.0, 0.0, 0.0, 0.0, 0.0, 0.0, 0.0, 0.0, 0.0, 0.0, 0.0, 0.0, 0.0, 0.0, 0.0, 0.0, -4.87282483733064e-05, -9.155311769850443e-06, 0.0, 0.0, 0.0, 4.540962684509882e-05)"
1975/03/10/09:57:50.548353,298,163645070,548352908,map,-25869.9919147,-93278.7275458,1.54634523392,-0.000184299775314,0.000620123697061,0.772998488993,0.634407532659,"(0.0004456872374448289, -4.7894496402535775e-05, 0.0, 0.0, 0.0, -4.8835253723065563e-05, -4.789449640253575e-05, 0.0006842753688941321, 0.0, 0.0, 0.0, -9.20348692438782e-06, 0.0, 0.0, 0.0, 0.0, 0.0, 0.0, 0.0, 0.0, 0.0, 0.0, 0.0, 0.0, 0.0, 0.0, 0.0, 0.0, 0.0, 0.0, -4.883525372306562e-05, -9.20348692438783e-06, 0.0, 0.0, 0.0, 4.533905018942488e-05)"
1975/03/10/09:57:50.572481,299,163645070,572480975,map,-25870.0069957,-93278.6529139,1.54634523392,-0.000184540812114,0.00062005201032,0.773245033643,0.634107009445,"(0.0004456865202535446, -4.8055528788541674e-05, 0.0, 0.0, 0.0, -4.905931496561043e-05, -4.8055528788541654e-05, 0.0006840554100995365, 0.0, 0.0, 0.0, -9.274397197376577e-06, 0.0, 0.0, 0.0, 0.0, 0.0, 0.0, 0.0, 0.0, 0.0, 0.0, 0.0, 0.0, 0.0, 0.0, 0.0, 0.0, 0.0, 0.0, -4.905931496561048e-05, -9.274397197376587e-06, 0.0, 0.0, 0.0, 4.530581427007497e-05)"
1975/03/10/09:57:50.588567,300,163645070,588566680,map,-25870.0222437,-93278.577688,1.54634523392,-0.000184782912455,0.000619979904596,0.773492577221,0.633805028746,"(0.0004462691034746842, -4.8685299153759414e-05, 0.0, 0.0, 0.0, -4.939370141139644e-05, -4.868529915375939e-05, 0.0006866891916009576, 0.0, 0.0, 0.0, -9.366942656128668e-06, 0.0, 0.0, 0.0, 0.0, 0.0, 0.0, 0.0, 0.0, 0.0, 0.0, 0.0, 0.0, 0.0, 0.0, 0.0, 0.0, 0.0, 0.0, -4.9393701411396486e-05, -9.366942656128673e-06, 0.0, 0.0, 0.0, 4.5306693497932315e-05)"
1975/03/10/09:57:50.612682,301,163645070,612681636,map,-25870.0376424,-93278.5019618,1.54634523392,-0.000185027267878,0.000619907022851,0.77374233619,0.633500101553,"(0.0004474472792789729, -4.971566474772408e-05, 0.0, 0.0, 0.0, -4.983862730233894e-05, -4.971566474772405e-05, 0.0006918433821339622, 0.0, 0.0, 0.0, -9.481420673507728e-06, 0.0, 0.0, 0.0, 0.0, 0.0, 0.0, 0.0, 0.0, 0.0, 0.0, 0.0, 0.0, 0.0, 0.0, 0.0, 0.0, 0.0, 0.0, -4.9838627302338986e-05, -9.481420673507733e-06, 0.0, 0.0, 0.0, 4.533891384207902e-05)"
1975/03/10/09:57:50.628737,302,163645070,628737420,map,-25870.0531415,-93278.4254392,1.54719185829,-3.03167099003e-05,0.000578880874687,0.773990023364,0.633197526615,"(0.0004463202719646326, -4.888778226428058e-05, 0.0, 0.0, 0.0, -4.9835632579363884e-05, -4.888778226428055e-05, 0.0006858393810452429, 0.0, 0.0, 0.0, -9.51515055275973e-06, 0.0, 0.0, 0.0, 0.0, 0.0, 0.0, 0.0, 0.0, 0.0, 0.0, 0.0, 0.0, 0.0, 0.0, 0.0, 0.0, 0.0, 0.0, -4.9835632579363924e-05, -9.515150552759734e-06, 0.0, 0.0, 0.0, 4.522493358810674e-05)"
1975/03/10/09:57:50.652867,303,163645070,652867508,map,-25870.068737,-93278.3487234,1.54719185829,-3.0548521897e-05,0.000578868687862,0.774243526984,0.632887529425,"(0.0004458366589686327, -4.854196603873091e-05, 0.0, 0.0, 0.0, -4.9962232739876315e-05, -4.854196603873086e-05, 0.0006827788549557977, 0.0, 0.0, 0.0, -9.573735640920089e-06, 0.0, 0.0, 0.0, 0.0, 0.0, 0.0, 0.0, 0.0, 0.0, 0.0, 0.0, 0.0, 0.0, 0.0, 0.0, 0.0, 0.0, 0.0, -4.9962232739876356e-05, -9.573735640920092e-06, 0.0, 0.0, 0.0, 4.515172576629854e-05)"
1975/03/10/09:57:50.668954,304,163645070,668953604,map,-25870.0844489,-93278.2717259,1.54719185829,-3.07754509215e-05,0.000578856667577,0.774491575632,0.632583957473,"(0.0004459401850594779, -4.871739374239673e-05, 0.0, 0.0, 0.0, -5.0203442845916344e-05, -4.871739374239667e-05, 0.0006827792786921049, 0.0, 0.0, 0.0, -9.654399964220988e-06, 0.0, 0.0, 0.0, 0.0, 0.0, 0.0, 0.0, 0.0, 0.0, 0.0, 0.0, 0.0, 0.0, 0.0, 0.0, 0.0, 0.0, 0.0, -5.020344284591638e-05, -9.654399964220991e-06, 0.0, 0.0, 0.0, 4.511650180703164e-05)"
1975/03/10/09:57:50.693083,305,163645070,693082869,map,-25870.1002862,-93278.1943999,1.54719185829,-3.10060760947e-05,0.000578844360103,0.774743547762,0.632275334944,"(0.0004466212620596755, -4.936714201286912e-05, 0.0, 0.0, 0.0, -5.055473418180441e-05, -4.9367142012869065e-05, 0.0006855952876541841, 0.0, 0.0, 0.0, -9.756506870878113e-06, 0.0, 0.0, 0.0, 0.0, 0.0, 0.0, 0.0, 0.0, 0.0, 0.0, 0.0, 0.0, 0.0, 0.0, 0.0, 0.0, 0.0, 0.0, -5.055473418180444e-05, -9.756506870878116e-06, 0.0, 0.0, 0.0, 4.5115947549695416e-05)"
1975/03/10/09:57:50.709167,306,163645070,709166590,map,-25870.1162954,-93278.1165278,1.54719185829,-3.12330438829e-05,0.000578832157838,0.77499140915,0.631971502302,"(0.0004478622011565464, -5.0428517390687984e-05, 0.0, 0.0, 0.0, -5.101124748711083e-05, -5.0428517390687936e-05, 0.000690898924989932, 0.0, 0.0, 0.0, -9.879435375004216e-06, 0.0, 0.0, 0.0, 0.0, 0.0, 0.0, 0.0, 0.0, 0.0, 0.0, 0.0, 0.0, 0.0, 0.0, 0.0, 0.0, 0.0, 0.0, -5.101124748711086e-05, -9.879435375004222e-06, 0.0, 0.0, 0.0, 4.514721320294621e-05)"
1975/03/10/09:57:50.733296,307,163645070,733295896,map,-25870.1333229,-93278.0324943,1.5456430912,0.000200889413786,0.000409157711594,0.775232897526,0.631675349231,"(0.00044738104580098584, -5.005117855669115e-05, 0.0, 0.0, 0.0, -5.113036488286269e-05, -5.0051178556691106e-05, 0.0006876767847837193, 0.0, 0.0, 0.0, -9.939282206430903e-06, 0.0, 0.0, 0.0, 0.0, 0.0, 0.0, 0.0, 0.0, 0.0, 0.0, 0.0, 0.0, 0.0, 0.0, 0.0, 0.0, 0.0, 0.0, -5.1130364882862714e-05, -9.939282206430908e-06, 0.0, 0.0, 0.0, 4.5067897445522296e-05)"
1975/03/10/09:57:50.749380,308,163645070,749380493,map,-25870.1495995,-93277.952438,1.5456430912,0.000200736083606,0.000409232958431,0.775469539084,0.631384816246,"(0.0004469173127823045, -4.9702869935523153e-05, 0.0, 0.0, 0.0, -5.1252828888440514e-05, -4.9702869935523106e-05, 0.0006846128587680636, 0.0, 0.0, 0.0, -1.0000142442224061e-05, 0.0, 0.0, 0.0, 0.0, 0.0, 0.0, 0.0, 0.0, 0.0, 0.0, 0.0, 0.0, 0.0, 0.0, 0.0, 0.0, 0.0, 0.0, -5.125282888844055e-05, -1.0000142442224068e-05, 0.0, 0.0, 0.0, 4.498987780802206e-05)"
1975/03/10/09:57:50.773508,309,163645070,773508139,map,-25870.1667386,-93277.8685985,1.5456430912,0.000200578940706,0.00040931000241,0.775711906919,0.631087022285,"(0.0004476458732502155, -5.030390246121854e-05, 0.0, 0.0, 0.0, -5.160931491435657e-05, -5.03039024612185e-05, 0.0006871687491955066, 0.0, 0.0, 0.0, -1.010632746993519e-05, 0.0, 0.0, 0.0, 0.0, 0.0, 0.0, 0.0, 0.0, 0.0, 0.0, 0.0, 0.0, 0.0, 0.0, 0.0, 0.0, 0.0, 0.0, -5.16093149143566e-05, -1.0106327469935194e-05, 0.0, 0.0, 0.0, 4.4986074603121856e-05)"
1975/03/10/09:57:50.789593,310,163645070,789593188,map,-25870.1832179,-93277.7882787,1.5456430912,0.000200420636907,0.000409387539905,0.77595590356,0.63078699096,"(0.00044837829957668045, -5.0902976258452986e-05, 0.0, 0.0, 0.0, -5.196355035244818e-05, -5.090297625845297e-05, 0.0006897035429111498, 0.0, 0.0, 0.0, -1.0212774023705666e-05, 0.0, 0.0, 0.0, 0.0, 0.0, 0.0, 0.0, 0.0, 0.0, 0.0, 0.0, 0.0, 0.0, 0.0, 0.0, 0.0, 0.0, 0.0, -5.196355035244822e-05, -1.0212774023705674e-05, 0.0, 0.0, 0.0, 4.498047562417051e-05)"
1975/03/10/09:57:50.813724,311,163645070,813723522,map,-25870.2005168,-93277.7043977,1.5456430912,0.000200261848624,0.000409465238468,0.776200484001,0.630486003706,"(0.0004502394635860691, -5.230959440646237e-05, 0.0, 0.0, 0.0, -5.253309350054832e-05, -5.230959440646235e-05, 0.0006971057199850774, 0.0, 0.0, 0.0, -1.0361650875860768e-05, 0.0, 0.0, 0.0, 0.0, 0.0, 0.0, 0.0, 0.0, 0.0, 0.0, 0.0, 0.0, 0.0, 0.0, 0.0, 0.0, 0.0, 0.0, -5.253309350054836e-05, -1.0361650875860778e-05, 0.0, 0.0, 0.0, 4.504018813847602e-05)"
1975/03/10/09:57:50.829810,312,163645070,829810215,map,-25870.2173296,-93277.6244548,1.54343473911,0.000178480132821,0.000282156756654,0.776458844857,0.630167875074,"(0.0004491355413952923, -5.133522057984521e-05, 0.0, 0.0, 0.0, -5.251434356940658e-05, -5.1335220579845204e-05, 0.0006903877837149469, 0.0, 0.0, 0.0, -1.0393906816556395e-05, 0.0, 0.0, 0.0, 0.0, 0.0, 0.0, 0.0, 0.0, 0.0, 0.0, 0.0, 0.0, 0.0, 0.0, 0.0, 0.0, 0.0, 0.0, -5.251434356940662e-05, -1.0393906816556406e-05, 0.0, 0.0, 0.0, 4.49127780859194e-05)"
1975/03/10/09:57:50.853907,313,163645070,853907044,map,-25870.2351507,-93277.5400182,1.54343473911,0.000178360176191,0.000282232600325,0.776726649391,0.62983775741,"(0.0004492890181040503, -5.133939170396418e-05, 0.0, 0.0, 0.0, -5.275056637866719e-05, -5.1339391703964184e-05, 0.0006894367135881705, 0.0, 0.0, 0.0, -1.0477238887542126e-05, 0.0, 0.0, 0.0, 0.0, 0.0, 0.0, 0.0, 0.0, 0.0, 0.0, 0.0, 0.0, 0.0, 0.0, 0.0, 0.0, 0.0, 0.0, -5.275056637866723e-05, -1.0477238887542138e-05, 0.0, 0.0, 0.0, 4.486635116553125e-05)"
1975/03/10/09:57:50.869941,314,163645070,869941062,map,-25870.2522707,-93277.4592466,1.54343473911,0.000178241597383,0.000282307502734,0.776991169347,0.629511406798,"(0.00044950813866722315, -5.139035306987689e-05, 0.0, 0.0, 0.0, -5.299488423977857e-05, -5.1390353069876904e-05, 0.0006887651791660451, 0.0, 0.0, 0.0, -1.0563116466257046e-05, 0.0, 0.0, 0.0, 0.0, 0.0, 0.0, 0.0, 0.0, 0.0, 0.0, 0.0, 0.0, 0.0, 0.0, 0.0, 0.0, 0.0, 0.0, -5.299488423977861e-05, -1.0563116466257057e-05, 0.0, 0.0, 0.0, 4.482003782602975e-05)"
1975/03/10/09:57:50.894051,315,163645070,894051235,map,-25870.2703111,-93277.3744339,1.54343473911,0.000178125130481,0.000282381003307,0.777250776458,0.629190844679,"(0.00045093778813999326, -5.2353444269819336e-05, 0.0, 0.0, 0.0, -5.347367425254815e-05, -5.2353444269819357e-05, 0.000693470486031494, 0.0, 0.0, 0.0, -1.069646166547317e-05, 0.0, 0.0, 0.0, 0.0, 0.0, 0.0, 0.0, 0.0, 0.0, 0.0, 0.0, 0.0, 0.0, 0.0, 0.0, 0.0, 0.0, 0.0, -5.3473674252548184e-05, -1.0696461665473182e-05, 0.0, 0.0, 0.0, 4.484493493544127e-05)"
1975/03/10/09:57:50.910139,316,163645070,910138916,map,-25870.2877123,-93277.2929763,1.54343473911,0.000178010009031,0.000282453588793,0.77750718824,0.628873962545,"(0.00045237852809790424, -5.3289174034263574e-05, 0.0, 0.0, 0.0, -5.3949601127521913e-05, -5.32891740342636e-05, 0.0006980407071190055, 0.0, 0.0, 0.0, -1.0830367498552378e-05, 0.0, 0.0, 0.0, 0.0, 0.0, 0.0, 0.0, 0.0, 0.0, 0.0, 0.0, 0.0, 0.0, 0.0, 0.0, 0.0, 0.0, 0.0, -5.394960112752195e-05, -1.0830367498552388e-05, 0.0, 0.0, 0.0, 4.48668920714488e-05)"
1975/03/10/09:57:50.934243,317,163645070,934243115,map,-25870.3060784,-93277.2076034,1.54563343525,6.97924250436e-05,0.000317511280676,0.777774979756,0.628542739343,"(0.000451981695378255, -5.274078522755255e-05, 0.0, 0.0, 0.0, -5.4058307468563356e-05, -5.274078522755256e-05, 0.0006940907123739875, 0.0, 0.0, 0.0, -1.0893235852264684e-05, 0.0, 0.0, 0.0, 0.0, 0.0, 0.0, 0.0, 0.0, 0.0, 0.0, 0.0, 0.0, 0.0, 0.0, 0.0, 0.0, 0.0, 0.0, -5.40583074685634e-05, -1.0893235852264692e-05, 0.0, 0.0, 0.0, 4.477290617086181e-05)"
1975/03/10/09:57:50.950329,318,163645070,950328896,map,-25870.3236482,-93277.1262625,1.54563343525,6.96656277707e-05,0.000317539125554,0.778025913573,0.62823210052,"(0.00045162283526737924, -5.2230340750086404e-05, 0.0, 0.0, 0.0, -5.417268093909802e-05, -5.223034075008642e-05, 0.0006903613138412763, 0.0, 0.0, 0.0, -1.0957829393104423e-05, 0.0, 0.0, 0.0, 0.0, 0.0, 0.0, 0.0, 0.0, 0.0, 0.0, 0.0, 0.0, 0.0, 0.0, 0.0, 0.0, 0.0, 0.0, -5.4172680939098065e-05, -1.0957829393104433e-05, 0.0, 0.0, 0.0, 4.468058352237018e-05)"
1975/03/10/09:57:50.974458,319,163645070,974457653,map,-25870.3422254,-93277.0405275,1.54563343525,6.95368299893e-05,0.000317567355415,0.778280656921,0.62791648599,"(0.0004525240077788879, -5.271470000533484e-05, 0.0, 0.0, 0.0, -5.4537785760066974e-05, -5.271470000533485e-05, 0.000692349309462341, 0.0, 0.0, 0.0, -1.1073170255755099e-05, 0.0, 0.0, 0.0, 0.0, 0.0, 0.0, 0.0, 0.0, 0.0, 0.0, 0.0, 0.0, 0.0, 0.0, 0.0, 0.0, 0.0, 0.0, -5.453778576006702e-05, -1.1073170255755109e-05, 0.0, 0.0, 0.0, 4.4666561000939655e-05)"
1975/03/10/09:57:50.990547,320,163645070,990547017,map,-25870.3600468,-93276.9586122,1.54563343525,6.94154165526e-05,0.000317593916653,0.778520657174,0.627618897636,"(0.0004534372508078222, -5.320425304377928e-05, 0.0, 0.0, 0.0, -5.4900337335949375e-05, -5.320425304377928e-05, 0.0006943645131646714, 0.0, 0.0, 0.0, -1.1188767580155742e-05, 0.0, 0.0, 0.0, 0.0, 0.0, 0.0, 0.0, 0.0, 0.0, 0.0, 0.0, 0.0, 0.0, 0.0, 0.0, 0.0, 0.0, 0.0, -5.490033733594943e-05, -1.1188767580155752e-05, 0.0, 0.0, 0.0, 4.4650797578554546e-05)"
1975/03/10/09:57:51.014680,321,163645071,14679740,map,-25870.3788274,-93276.8725379,1.54563343525,6.92934063144e-05,0.00031762055946,0.778761702321,0.627319779151,"(0.0004555036977107569, -5.454387227205457e-05, 0.0, 0.0, 0.0, -5.548619120173048e-05, -5.454387227205456e-05, 0.0007013182202326594, 0.0, 0.0, 0.0, -1.1350058964630069e-05, 0.0, 0.0, 0.0, 0.0, 0.0, 0.0, 0.0, 0.0, 0.0, 0.0, 0.0, 0.0, 0.0, 0.0, 0.0, 0.0, 0.0, 0.0, -5.548619120173053e-05, -1.1350058964630077e-05, 0.0, 0.0, 0.0, 4.4703613028947695e-05)"
1975/03/10/09:57:51.030765,322,163645071,30765239,map,-25870.3969748,-93276.789691,1.54563343525,6.91755134833e-05,0.000317646256525,0.778994484712,0.62703069072,"(0.00045757866585510525, -5.581472652571017e-05, 0.0, 0.0, 0.0, -5.606780054961961e-05, -5.581472652571017e-05, 0.0007079515761746961, 0.0, 0.0, 0.0, -1.1511546111992124e-05, 0.0, 0.0, 0.0, 0.0, 0.0, 0.0, 0.0, 0.0, 0.0, 0.0, 0.0, 0.0, 0.0, 0.0, 0.0, 0.0, 0.0, 0.0, -5.606780054961965e-05, -1.151154611199213e-05, 0.0, 0.0, 0.0, 4.475221543271272e-05)"
1975/03/10/09:57:51.054894,323,163645071,54894432,map,-25870.4158979,-93276.7019848,1.54727959633,7.8969288682e-05,0.000406151934836,0.779205034877,0.626768970537,"(0.00045780222350192974, -5.549941742118495e-05, 0.0, 0.0, 0.0, -5.6280079986481255e-05, -5.5499417421184964e-05, 0.0007059627952227981, 0.0, 0.0, 0.0, -1.1605378105548807e-05, 0.0, 0.0, 0.0, 0.0, 0.0, 0.0, 0.0, 0.0, 0.0, 0.0, 0.0, 0.0, 0.0, 0.0, 0.0, 0.0, 0.0, 0.0, -5.6280079986481275e-05, -1.1605378105548813e-05, 0.0, 0.0, 0.0, 4.4685492564596874e-05)"
1975/03/10/09:57:51.070980,324,163645071,70980101,map,-25870.4339639,-93276.618472,1.54727959633,7.88354288833e-05,0.000406177938691,0.779411556835,0.626512133862,"(0.0004580499011895237, -5.5198834781990565e-05, 0.0, 0.0, 0.0, -5.649431118267637e-05, -5.5198834781990585e-05, 0.0007040669082808035, 0.0, 0.0, 0.0, -1.1699218356605295e-05, 0.0, 0.0, 0.0, 0.0, 0.0, 0.0, 0.0, 0.0, 0.0, 0.0, 0.0, 0.0, 0.0, 0.0, 0.0, 0.0, 0.0, 0.0, -5.649431118267638e-05, -1.16992183566053e-05, 0.0, 0.0, 0.0, 4.46189878000744e-05)"
1975/03/10/09:57:51.095108,325,163645071,95107870,map,-25870.4530934,-93276.5304902,1.54727959633,7.86916301512e-05,0.0004062058223,0.779633303781,0.62623616986,"(0.00045953785885152266, -5.589426558058989e-05, 0.0, 0.0, 0.0, -5.6952730836952926e-05, -5.58942655805899e-05, 0.0007077425536036591, 0.0, 0.0, 0.0, -1.1841587118641453e-05, 0.0, 0.0, 0.0, 0.0, 0.0, 0.0, 0.0, 0.0, 0.0, 0.0, 0.0, 0.0, 0.0, 0.0, 0.0, 0.0, 0.0, 0.0, -5.695273083695294e-05, -1.184158711864146e-05, 0.0, 0.0, 0.0, 4.462860611335439e-05)"
1975/03/10/09:57:51.111199,326,163645071,111199483,map,-25870.471463,-93276.4462576,1.54727959633,7.85531767203e-05,0.000406232619509,0.779846701237,0.625970407747,"(0.00046104160287749644, -5.654913176350217e-05, 0.0, 0.0, 0.0, -5.740890338274067e-05, -5.6549131763502185e-05, 0.0007112444651566242, 0.0, 0.0, 0.0, -1.1983840678826764e-05, 0.0, 0.0, 0.0, 0.0, 0.0, 0.0, 0.0, 0.0, 0.0, 0.0, 0.0, 0.0, 0.0, 0.0, 0.0, 0.0, 0.0, 0.0, -5.7408903382740674e-05, -1.1983840678826771e-05, 0.0, 0.0, 0.0, 4.4635306867251765e-05)"
1975/03/10/09:57:51.135328,327,163645071,135327944,map,-25870.4912147,-93276.3563379,1.54682159424,-4.12454068163e-06,0.000454509407587,0.780062844243,0.625701008818,"(0.00046055047893694224, -5.565084079259782e-05, 0.0, 0.0, 0.0, -5.746259501357781e-05, -5.565084079259785e-05, 0.000705991751470875, 0.0, 0.0, 0.0, -1.2042944477071489e-05, 0.0, 0.0, 0.0, 0.0, 0.0, 0.0, 0.0, 0.0, 0.0, 0.0, 0.0, 0.0, 0.0, 0.0, 0.0, 0.0, 0.0, 0.0, -5.7462595013577824e-05, -1.2042944477071495e-05, 0.0, 0.0, 0.0, 4.4519767413168465e-05)"
1975/03/10/09:57:51.151422,328,163645071,151422226,map,-25870.5100754,-93276.2707127,1.54682159424,-4.27669450278e-06,0.000454508001365,0.780272263621,0.625439835658,"(0.00046012438930155867, -5.481361406250019e-05, 0.0, 0.0, 0.0, -5.752672963680139e-05, -5.4813614062500215e-05, 0.0007010880206916413, 0.0, 0.0, 0.0, -1.2103842054448666e-05, 0.0, 0.0, 0.0, 0.0, 0.0, 0.0, 0.0, 0.0, 0.0, 0.0, 0.0, 0.0, 0.0, 0.0, 0.0, 0.0, 0.0, 0.0, -5.7526729636801394e-05, -1.2103842054448673e-05, 0.0, 0.0, 0.0, 4.4406805061544076e-05)"
1975/03/10/09:57:51.167507,329,163645071,167506689,map,-25870.5290651,-93276.1848218,1.54682159424,-4.42597342177e-06,0.000454506572208,0.78047764174,0.625183528372,"(0.00046040674398359783, -5.455595516122218e-05, 0.0, 0.0, 0.0, -5.773284411714785e-05, -5.455595516122221e-05, 0.0006993884661499907, 0.0, 0.0, 0.0, -1.2193557287965387e-05, 0.0, 0.0, 0.0, 0.0, 0.0, 0.0, 0.0, 0.0, 0.0, 0.0, 0.0, 0.0, 0.0, 0.0, 0.0, 0.0, 0.0, 0.0, -5.7732844117147866e-05, -1.2193557287965393e-05, 0.0, 0.0, 0.0, 4.433782607104762e-05)"
1975/03/10/09:57:51.191636,330,163645071,191635707,map,-25870.5482424,-93276.0983934,1.54682159424,-4.57908165997e-06,0.000454505055453,0.780688201464,0.624920575353,"(0.00046133255020750484, -5.484305035107076e-05, 0.0, 0.0, 0.0, -5.8065163960644175e-05, -5.48430503510708e-05, 0.0007006695320432548, 0.0, 0.0, 0.0, -1.2309053398029557e-05, 0.0, 0.0, 0.0, 0.0, 0.0, 0.0, 0.0, 0.0, 0.0, 0.0, 0.0, 0.0, 0.0, 0.0, 0.0, 0.0, 0.0, 0.0, -5.8065163960644175e-05, -1.2309053398029564e-05, 0.0, 0.0, 0.0, 4.4308872096768495e-05)"
1975/03/10/09:57:51.207711,331,163645071,207711081,map,-25870.5675963,-93276.0114853,1.54682159424,-4.72941664151e-06,0.000454503515981,0.780894861804,0.624662315345,"(0.0004629237631351416, -5.5595465339251994e-05, 0.0, 0.0, 0.0, -5.852490614789393e-05, -5.559546533925203e-05, 0.0007046004512755969, 0.0, 0.0, 0.0, -1.2451176980173589e-05, 0.0, 0.0, 0.0, 0.0, 0.0, 0.0, 0.0, 0.0, 0.0, 0.0, 0.0, 0.0, 0.0, 0.0, 0.0, 0.0, 0.0, 0.0, -5.852490614789392e-05, -1.2451176980173595e-05, 0.0, 0.0, 0.0, 4.431639853956142e-05)"
1975/03/10/09:57:51.231844,332,163645071,231843574,map,-25870.5863169,-93275.9257253,1.54559934139,-0.000256728536982,0.00053445459095,0.781072739439,0.624439768236,"(0.0004618729009085808, -5.431017433750265e-05, 0.0, 0.0, 0.0, -5.8439041764402044e-05, -5.4310174337502686e-05, 0.0006971473005779718, 0.0, 0.0, 0.0, -1.2476700942087192e-05, 0.0, 0.0, 0.0, 0.0, 0.0, 0.0, 0.0, 0.0, 0.0, 0.0, 0.0, 0.0, 0.0, 0.0, 0.0, 0.0, 0.0, 0.0, -5.843904176440203e-05, -1.2476700942087198e-05, 0.0, 0.0, 0.0, 4.415601018100789e-05)"
1975/03/10/09:57:51.247908,333,163645071,247907692,map,-25870.6052505,-93275.8393936,1.54559934139,-0.000256891508403,0.000534376276044,0.7812631277,0.624201548977,"(0.00046154962805871393, -5.358420319625526e-05, 0.0, 0.0, 0.0, -5.8506796866294974e-05, -5.3584203196255294e-05, 0.000692821384231198, 0.0, 0.0, 0.0, -1.253426031261509e-05, 0.0, 0.0, 0.0, 0.0, 0.0, 0.0, 0.0, 0.0, 0.0, 0.0, 0.0, 0.0, 0.0, 0.0, 0.0, 0.0, 0.0, 0.0, -5.850679686629496e-05, -1.2534260312615095e-05, 0.0, 0.0, 0.0, 4.4044292052042097e-05)"
1975/03/10/09:57:51.272015,334,163645071,272014617,map,-25870.6243959,-93275.7525012,1.54559934139,-0.000257059622098,0.000534295425936,0.781459476428,0.623955715696,"(0.0004619409848267712, -5.344609656910196e-05, 0.0, 0.0, 0.0, -5.8718256678565564e-05, -5.3446096569101995e-05, 0.0006917156263981329, 0.0, 0.0, 0.0, -1.2622023660127789e-05, 0.0, 0.0, 0.0, 0.0, 0.0, 0.0, 0.0, 0.0, 0.0, 0.0, 0.0, 0.0, 0.0, 0.0, 0.0, 0.0, 0.0, 0.0, -5.871825667856555e-05, -1.2622023660127794e-05, 0.0, 0.0, 0.0, 4.397731162246442e-05)"
1975/03/10/09:57:51.288068,335,163645071,288068099,map,-25870.6437483,-93275.6650695,1.54559934139,-0.000257228833533,0.000534213982116,0.78165705915,0.623708177218,"(0.00046301815122922043, -5.384166566504878e-05, 0.0, 0.0, 0.0, -5.906410695405022e-05, -5.384166566504881e-05, 0.0006935584963351279, 0.0, 0.0, 0.0, -1.2738377858248092e-05, 0.0, 0.0, 0.0, 0.0, 0.0, 0.0, 0.0, 0.0, 0.0, 0.0, 0.0, 0.0, 0.0, 0.0, 0.0, 0.0, 0.0, 0.0, -5.9064106954050206e-05, -1.2738377858248096e-05, 0.0, 0.0, 0.0, 4.395081223766633e-05)"
1975/03/10/09:57:51.312169,336,163645071,312169408,map,-25870.6633014,-93275.5771199,1.54559934139,-0.000257401887404,0.000534130620588,0.781859078612,0.62345491388,"(0.0004647516172147845, -5.4697654359940665e-05, 0.0, 0.0, 0.0, -5.953636224804532e-05, -5.4697654359940685e-05, 0.0006980001791840684, 0.0, 0.0, 0.0, -1.2881963911372543e-05, 0.0, 0.0, 0.0, 0.0, 0.0, 0.0, 0.0, 0.0, 0.0, 0.0, 0.0, 0.0, 0.0, 0.0, 0.0, 0.0, 0.0, 0.0, -5.953636224804531e-05, -1.2881963911372547e-05, 0.0, 0.0, 0.0, 4.3961146911970824e-05)"
1975/03/10/09:57:51.328259,337,163645071,328258560,map,-25870.6832711,-93275.4885621,1.54501831532,-0.000509105593042,0.00079107080263,0.782061821188,0.623200146709,"(0.0004637608357581164, -5.351177563683423e-05, 0.0, 0.0, 0.0, -5.944514080612162e-05, -5.3511775636834264e-05, 0.0006912718772982683, 0.0, 0.0, 0.0, -1.290747866104183e-05, 0.0, 0.0, 0.0, 0.0, 0.0, 0.0, 0.0, 0.0, 0.0, 0.0, 0.0, 0.0, 0.0, 0.0, 0.0, 0.0, 0.0, 0.0, -5.9445140806121595e-05, -1.2907478661041835e-05, 0.0, 0.0, 0.0, 4.3800561091953465e-05)"
1975/03/10/09:57:51.352410,338,163645071,352410259,map,-25870.7034416,-93275.3994547,1.54501831532,-0.000509359142771,0.000790907569388,0.782261546351,0.622949426615,"(0.00046347277250700794, -5.2881079331714453e-05, 0.0, 0.0, 0.0, -5.9504540520946745e-05, -5.288107933171449e-05, 0.0006875691253675508, 0.0, 0.0, 0.0, -1.2964787881516188e-05, 0.0, 0.0, 0.0, 0.0, 0.0, 0.0, 0.0, 0.0, 0.0, 0.0, 0.0, 0.0, 0.0, 0.0, 0.0, 0.0, 0.0, 0.0, -5.950454052094672e-05, -1.2964787881516195e-05, 0.0, 0.0, 0.0, 4.3689415274654e-05)"
1975/03/10/09:57:51.368498,339,163645071,368498007,map,-25870.7237579,-93275.3100316,1.54501831532,-0.000509619051367,0.000790740123001,0.782466239844,0.622692298429,"(0.0004639259800102244, -5.282476328499306e-05, 0.0, 0.0, 0.0, -5.9713614057237135e-05, -5.2824763284993087e-05, 0.0006869978851468992, 0.0, 0.0, 0.0, -1.3053982039187645e-05, 0.0, 0.0, 0.0, 0.0, 0.0, 0.0, 0.0, 0.0, 0.0, 0.0, 0.0, 0.0, 0.0, 0.0, 0.0, 0.0, 0.0, 0.0, -5.971361405723712e-05, -1.305398203918765e-05, 0.0, 0.0, 0.0, 4.362363915086727e-05)"
1975/03/10/09:57:51.392612,340,163645071,392611805,map,-25870.7442785,-93275.2200399,1.54501831532,-0.000509885937058,0.000790568055787,0.782676385364,0.622428141083,"(0.0004650497899358855, -5.329963525132817e-05, 0.0, 0.0, 0.0, -6.0055254009335436e-05, -5.32996352513282e-05, 0.000689297830072546, 0.0, 0.0, 0.0, -1.3171667199515967e-05, 0.0, 0.0, 0.0, 0.0, 0.0, 0.0, 0.0, 0.0, 0.0, 0.0, 0.0, 0.0, 0.0, 0.0, 0.0, 0.0, 0.0, 0.0, -6.0055254009335436e-05, -1.3171667199515976e-05, 0.0, 0.0, 0.0, 4.359886864366571e-05)"
1975/03/10/09:57:51.408699,341,163645071,408698710,map,-25870.7649901,-93275.129546,1.54501831532,-0.000510149807964,0.00079039780685,0.782884114331,0.622166841407,"(0.0004668622186542695, -5.422330593407958e-05, 0.0, 0.0, 0.0, -6.052977969061596e-05, -5.4223305934079616e-05, 0.0006941337795725267, 0.0, 0.0, 0.0, -1.3318453916613403e-05, 0.0, 0.0, 0.0, 0.0, 0.0, 0.0, 0.0, 0.0, 0.0, 0.0, 0.0, 0.0, 0.0, 0.0, 0.0, 0.0, 0.0, 0.0, -6.052977969061596e-05, -1.3318453916613412e-05, 0.0, 0.0, 0.0, 4.361136709557144e-05)"
1975/03/10/09:57:51.432783,342,163645071,432782716,map,-25870.7860483,-93275.0386189,1.54170966148,-0.000758272915821,0.000936014195823,0.783109300083,0.621882925496,"(0.00046592669979163216, -5.310832217740945e-05, 0.0, 0.0, 0.0, -6.043157926490743e-05, -5.3108322177409494e-05, 0.0006877995249975142, 0.0, 0.0, 0.0, -1.3339826636744203e-05, 0.0, 0.0, 0.0, 0.0, 0.0, 0.0, 0.0, 0.0, 0.0, 0.0, 0.0, 0.0, 0.0, 0.0, 0.0, 0.0, 0.0, 0.0, -6.043157926490743e-05, -1.333982663674421e-05, 0.0, 0.0, 0.0, 4.345044818874606e-05)"
1975/03/10/09:57:51.448870,343,163645071,448870216,map,-25870.8072348,-93274.9474457,1.54170966148,-0.000758611293096,0.000935739972235,0.783334097914,0.621599742556,"(0.00046574512868262266, -5.253211783019133e-05, 0.0, 0.0, 0.0, -6.0494350152685323e-05, -5.2532117830191375e-05, 0.0006844354313488252, 0.0, 0.0, 0.0, -1.339656635478233e-05, 0.0, 0.0, 0.0, 0.0, 0.0, 0.0, 0.0, 0.0, 0.0, 0.0, 0.0, 0.0, 0.0, 0.0, 0.0, 0.0, 0.0, 0.0, -6.049435015268531e-05, -1.3396566354782335e-05, 0.0, 0.0, 0.0, 4.33397392514757e-05)"
1975/03/10/09:57:51.473001,344,163645071,473000614,map,-25870.8296196,-93274.8514498,1.54170966148,-0.000758961398201,0.00093545603087,0.783566648563,0.621306571798,"(0.0004669440907543751, -5.300373445045074e-05, 0.0, 0.0, 0.0, -6.083967391152108e-05, -5.3003734450450795e-05, 0.0006867310316824722, 0.0, 0.0, 0.0, -1.3515403648070465e-05, 0.0, 0.0, 0.0, 0.0, 0.0, 0.0, 0.0, 0.0, 0.0, 0.0, 0.0, 0.0, 0.0, 0.0, 0.0, 0.0, 0.0, 0.0, -6.0839673911521054e-05, -1.3515403648070469e-05, 0.0, 0.0, 0.0, 4.331599889701795e-05)"
1975/03/10/09:57:51.489087,345,163645071,489086724,map,-25870.8511376,-93274.7594745,1.54170966148,-0.000759309084337,0.000935173836296,0.783797553716,0.62101525238,"(0.00046817973077620836, -5.349311656007975e-05, 0.0, 0.0, 0.0, -6.118496991160931e-05, -5.3493116560079816e-05, 0.0006891291216739445, 0.0, 0.0, 0.0, -1.3634923425593788e-05, 0.0, 0.0, 0.0, 0.0, 0.0, 0.0, 0.0, 0.0, 0.0, 0.0, 0.0, 0.0, 0.0, 0.0, 0.0, 0.0, 0.0, 0.0, -6.11849699116093e-05, -1.3634923425593792e-05, 0.0, 0.0, 0.0, 4.329076190814925e-05)"
1975/03/10/09:57:51.513220,346,163645071,513219941,map,-25870.8737608,-93274.6631024,1.54170966148,-0.000759665901812,0.00093488400739,0.784034482989,0.620716101276,"(0.0004707541883733584, -5.484303371401037e-05, 0.0, 0.0, 0.0, -6.179407922580579e-05, -5.4843033714010435e-05, 0.0006963555266578846, 0.0, 0.0, 0.0, -1.3813374430009365e-05, 0.0, 0.0, 0.0, 0.0, 0.0, 0.0, 0.0, 0.0, 0.0, 0.0, 0.0, 0.0, 0.0, 0.0, 0.0, 0.0, 0.0, 0.0, -6.179407922580578e-05, -1.381337443000937e-05, 0.0, 0.0, 0.0, 4.3340682942464986e-05)"
1975/03/10/09:57:51.529317,347,163645071,529316697,map,-25870.8955981,-93274.570402,1.54170966148,-0.000760026899612,0.000934590552871,0.784274146571,0.620413258981,"(0.00047332743720651963, -5.612865061981327e-05, 0.0, 0.0, 0.0, -6.239460874561173e-05, -5.6128650619813323e-05, 0.0007032966817889463, 0.0, 0.0, 0.0, -1.399105642863589e-05, 0.0, 0.0, 0.0, 0.0, 0.0, 0.0, 0.0, 0.0, 0.0, 0.0, 0.0, 0.0, 0.0, 0.0, 0.0, 0.0, 0.0, 0.0, -6.23946087456117e-05, -1.3991056428635895e-05, 0.0, 0.0, 0.0, 4.338612387715059e-05)"
1975/03/10/09:57:51.553481,348,163645071,553481388,map,-25870.9191258,-93274.4723042,1.54257595539,-0.00115109342453,0.00118851096461,0.784532598645,0.620085368388,"(0.0004737968182929924, -5.58324074519645e-05, 0.0, 0.0, 0.0, -6.256518104566318e-05, -5.5832407451964546e-05, 0.0007016808816488843, 0.0, 0.0, 0.0, -1.4073461718225582e-05, 0.0, 0.0, 0.0, 0.0, 0.0, 0.0, 0.0, 0.0, 0.0, 0.0, 0.0, 0.0, 0.0, 0.0, 0.0, 0.0, 0.0, 0.0, -6.256518104566316e-05, -1.4073461718225585e-05, 0.0, 0.0, 0.0, 4.330460501925962e-05)"
1975/03/10/09:57:51.569568,349,163645071,569567994,map,-25870.9416073,-93274.3789187,1.54257595539,-0.00115157991812,0.00118803959412,0.784786402978,0.619764119748,"(0.0004742856540036864, -5.554581207887142e-05, 0.0, 0.0, 0.0, -6.273639454937596e-05, -5.554581207887145e-05, 0.0007001252262279135, 0.0, 0.0, 0.0, -1.4156876838090452e-05, 0.0, 0.0, 0.0, 0.0, 0.0, 0.0, 0.0, 0.0, 0.0, 0.0, 0.0, 0.0, 0.0, 0.0, 0.0, 0.0, 0.0, 0.0, -6.273639454937595e-05, -1.4156876838090454e-05, 0.0, 0.0, 0.0, 4.3223760976226277e-05)"
1975/03/10/09:57:51.593698,350,163645071,593697837,map,-25870.9652457,-93274.2809229,1.54257595539,-0.00115207765145,0.00118755693339,0.785046039156,0.619435209551,"(0.0004761749209946202, -5.628040005039272e-05, 0.0, 0.0, 0.0, -6.318868954955329e-05, -5.628040005039275e-05, 0.0007040551658696095, 0.0, 0.0, 0.0, -1.4303841560194265e-05, 0.0, 0.0, 0.0, 0.0, 0.0, 0.0, 0.0, 0.0, 0.0, 0.0, 0.0, 0.0, 0.0, 0.0, 0.0, 0.0, 0.0, 0.0, -6.318868954955327e-05, -1.4303841560194265e-05, 0.0, 0.0, 0.0, 4.322709526412832e-05)"
1975/03/10/09:57:51.609785,351,163645071,609784702,map,-25870.9880254,-93274.1868484,1.54257595539,-0.00115257201352,0.00118707714099,0.785303884748,0.619108286995,"(0.0004780420158364605, -5.6975645023784536e-05, 0.0, 0.0, 0.0, -6.363029112537947e-05, -5.697564502378458e-05, 0.000707788006352457, 0.0, 0.0, 0.0, -1.444957798650433e-05, 0.0, 0.0, 0.0, 0.0, 0.0, 0.0, 0.0, 0.0, 0.0, 0.0, 0.0, 0.0, 0.0, 0.0, 0.0, 0.0, 0.0, 0.0, -6.363029112537947e-05, -1.4449577986504329e-05, 0.0, 0.0, 0.0, 4.322731500996791e-05)"
1975/03/10/09:57:51.633931,352,163645071,633931178,map,-25871.0123837,-93274.0866333,1.54252886772,-0.00146391109575,0.00157298317201,0.785571466102,0.618767205283,"(0.00047771766640061043, -5.6020221778651205e-05, 0.0, 0.0, 0.0, -6.361987413248172e-05, -5.602022177865124e-05, 0.0007027417192857, 0.0, 0.0, 0.0, -1.4494012283575606e-05, 0.0, 0.0, 0.0, 0.0, 0.0, 0.0, 0.0, 0.0, 0.0, 0.0, 0.0, 0.0, 0.0, 0.0, 0.0, 0.0, 0.0, 0.0, -6.361987413248172e-05, -1.4494012283575604e-05, 0.0, 0.0, 0.0, 4.3093483315237864e-05)"
1975/03/10/09:57:51.650018,353,163645071,650017540,map,-25871.0356006,-93273.9914699,1.54252886772,-0.00146458402507,0.00157235663549,0.785836158318,0.618431010678,"(0.0004774516610182669, -5.512910240405315e-05, 0.0, 0.0, 0.0, -6.361911920088032e-05, -5.5129102404053174e-05, 0.0006980226933192834, 0.0, 0.0, 0.0, -1.4541293982184552e-05, 0.0, 0.0, 0.0, 0.0, 0.0, 0.0, 0.0, 0.0, 0.0, 0.0, 0.0, 0.0, 0.0, 0.0, 0.0, 0.0, 0.0, 0.0, -6.361911920088033e-05, -1.4541293982184552e-05, 0.0, 0.0, 0.0, 4.296322182963988e-05)"
1975/03/10/09:57:51.674145,354,163645071,674144572,map,-25871.0601064,-93273.8912496,1.54252886772,-0.0014652740949,0.00157171358157,0.786107552726,0.618085995826,"(0.000478672186713386, -5.5346446907033734e-05, 0.0, 0.0, 0.0, -6.392294853577089e-05, -5.534644690703375e-05, 0.0006991539833528313, 0.0, 0.0, 0.0, -1.4658354232934336e-05, 0.0, 0.0, 0.0, 0.0, 0.0, 0.0, 0.0, 0.0, 0.0, 0.0, 0.0, 0.0, 0.0, 0.0, 0.0, 0.0, 0.0, 0.0, -6.392294853577089e-05, -1.4658354232934336e-05, 0.0, 0.0, 0.0, 4.292523864807288e-05)"
1975/03/10/09:57:51.690230,355,163645071,690229694,map,-25871.083645,-93273.7953609,1.54252886772,-0.00146595325416,0.0015710801419,0.786374616666,0.617746181657,"(0.00047992781996212316, -5.558372433265844e-05, 0.0, 0.0, 0.0, -6.42265825214984e-05, -5.558372433265845e-05, 0.0007003909664683679, 0.0, 0.0, 0.0, -1.4776423138048546e-05, 0.0, 0.0, 0.0, 0.0, 0.0, 0.0, 0.0, 0.0, 0.0, 0.0, 0.0, 0.0, 0.0, 0.0, 0.0, 0.0, 0.0, 0.0, -6.422658252149842e-05, -1.4776423138048546e-05, 0.0, 0.0, 0.0, 4.288610500275338e-05)"
1975/03/10/09:57:51.714363,356,163645071,714363094,map,-25871.1084203,-93273.6946707,1.54252886772,-0.00146663911169,0.00157043989752,0.786644274726,0.617402759735,"(0.00048262186538970307, -5.674160534597341e-05, 0.0, 0.0, 0.0, -6.48129875667957e-05, -5.6741605345973426e-05, 0.0007066638633298649, 0.0, 0.0, 0.0, -1.4960200767646439e-05, 0.0, 0.0, 0.0, 0.0, 0.0, 0.0, 0.0, 0.0, 0.0, 0.0, 0.0, 0.0, 0.0, 0.0, 0.0, 0.0, 0.0, 0.0, -6.481298756679572e-05, -1.4960200767646435e-05, 0.0, 0.0, 0.0, 4.292645827948604e-05)"
1975/03/10/09:57:51.730449,357,163645071,730448725,map,-25871.1321762,-93273.5977328,1.54166674614,-0.00171575976892,0.00177897367134,0.786895788399,0.617080958725,"(0.0004815775794419995, -5.5218350864876384e-05, 0.0, 0.0, 0.0, -6.46277100153902e-05, -5.5218350864876384e-05, 0.0006987779263354791, 0.0, 0.0, 0.0, -1.4968765374435931e-05, 0.0, 0.0, 0.0, 0.0, 0.0, 0.0, 0.0, 0.0, 0.0, 0.0, 0.0, 0.0, 0.0, 0.0, 0.0, 0.0, 0.0, 0.0, -6.46277100153902e-05, -1.4968765374435931e-05, 0.0, 0.0, 0.0, 4.274050474927981e-05)"
1975/03/10/09:57:51.754540,358,163645071,754539615,map,-25871.157332,-93273.4954365,1.54166674614,-0.00171650940725,0.00177825036561,0.78715580194,0.616749247988,"(0.00048214653939342356, -5.480983486650483e-05, 0.0, 0.0, 0.0, -6.47820644587637e-05, -5.4809834866504844e-05, 0.0006968194895234023, 0.0, 0.0, 0.0, -1.50559056449322e-05, 0.0, 0.0, 0.0, 0.0, 0.0, 0.0, 0.0, 0.0, 0.0, 0.0, 0.0, 0.0, 0.0, 0.0, 0.0, 0.0, 0.0, 0.0, -6.47820644587637e-05, -1.5055905644932193e-05, 0.0, 0.0, 0.0, 4.2655841221221036e-05)"
1975/03/10/09:57:51.770625,359,163645071,770625281,map,-25871.1813692,-93273.3980346,1.54166674614,-0.00171724113098,0.00177754375643,0.787409568892,0.616425228425,"(0.00048276159031724274, -5.4486062927049815e-05, 0.0, 0.0, 0.0, -6.493913890328874e-05, -5.448606292704983e-05, 0.0006952439493774748, 0.0, 0.0, 0.0, -1.5144147638554864e-05, 0.0, 0.0, 0.0, 0.0, 0.0, 0.0, 0.0, 0.0, 0.0, 0.0, 0.0, 0.0, 0.0, 0.0, 0.0, 0.0, 0.0, 0.0, -6.493913890328874e-05, -1.5144147638554862e-05, 0.0, 0.0, 0.0, 4.257252068683561e-05)"
1975/03/10/09:57:51.794746,360,163645071,794746211,map,-25871.2066775,-93273.295822,1.54166674614,-0.00171798825086,0.00177682167869,0.787668641782,0.616094150414,"(0.0004848620438043716, -5.520174080213358e-05, 0.0, 0.0, 0.0, -6.539324919205408e-05, -5.520174080213361e-05, 0.0006991502163335114, 0.0, 0.0, 0.0, -1.530168738736899e-05, 0.0, 0.0, 0.0, 0.0, 0.0, 0.0, 0.0, 0.0, 0.0, 0.0, 0.0, 0.0, 0.0, 0.0, 0.0, 0.0, 0.0, 0.0, -6.539324919205408e-05, -1.530168738736899e-05, 0.0, 0.0, 0.0, 4.257610917250514e-05)"
1975/03/10/09:57:51.810834,361,163645071,810833727,map,-25871.2310109,-93273.1979071,1.54166674614,-0.00171871406882,0.00177611960678,0.78792029547,0.615772278856,"(0.000486948659152628, -5.5906790131726136e-05, 0.0, 0.0, 0.0, -6.583673971986656e-05, -5.5906790131726164e-05, 0.0007029934392463878, 0.0, 0.0, 0.0, -1.5457685732485228e-05, 0.0, 0.0, 0.0, 0.0, 0.0, 0.0, 0.0, 0.0, 0.0, 0.0, 0.0, 0.0, 0.0, 0.0, 0.0, 0.0, 0.0, 0.0, -6.583673971986655e-05, -1.545768573248523e-05, 0.0, 0.0, 0.0, 4.257671046233184e-05)"
1975/03/10/09:57:51.835001,362,163645071,835000991,map,-25871.2569085,-93273.0952085,1.53467106819,-0.00171319764607,0.00160584516758,0.788191897534,0.615425071699,"(0.00048669530960535404, -5.4966078011303596e-05, 0.0, 0.0, 0.0, -6.579810812501413e-05, -5.496607801130361e-05, 0.0006983990308615791, 0.0, 0.0, 0.0, -1.5507243385709314e-05, 0.0, 0.0, 0.0, 0.0, 0.0, 0.0, 0.0, 0.0, 0.0, 0.0, 0.0, 0.0, 0.0, 0.0, 0.0, 0.0, 0.0, 0.0, -6.579810812501412e-05, -1.550724338570932e-05, 0.0, 0.0, 0.0, 4.243908619216906e-05)"
1975/03/10/09:57:51.851075,363,163645071,851074653,map,-25871.2816259,-93272.9975212,1.53467106819,-0.00171389420963,0.00160510171483,0.788458836583,0.615083042548,"(0.0004864788188155556, -5.4090642951784877e-05, 0.0, 0.0, 0.0, -6.576602338809206e-05, -5.409064295178488e-05, 0.0006940970755331189, 0.0, 0.0, 0.0, -1.555819373555817e-05, 0.0, 0.0, 0.0, 0.0, 0.0, 0.0, 0.0, 0.0, 0.0, 0.0, 0.0, 0.0, 0.0, 0.0, 0.0, 0.0, 0.0, 0.0, -6.576602338809203e-05, -1.5558193735558174e-05, 0.0, 0.0, 0.0, 4.23052663814846e-05)"
1975/03/10/09:57:51.875203,364,163645071,875203344,map,-25871.3077432,-93272.8945546,1.53467106819,-0.00171459606526,0.00160435195943,0.788727778594,0.614738137331,"(0.00048786054566288094, -5.432726641096926e-05, 0.0, 0.0, 0.0, -6.606036782440394e-05, -5.4327266410969264e-05, 0.0006955640968832511, 0.0, 0.0, 0.0, -1.568504581724465e-05, 0.0, 0.0, 0.0, 0.0, 0.0, 0.0, 0.0, 0.0, 0.0, 0.0, 0.0, 0.0, 0.0, 0.0, 0.0, 0.0, 0.0, 0.0, -6.606036782440393e-05, -1.568504581724465e-05, 0.0, 0.0, 0.0, 4.22670249675506e-05)"
1975/03/10/09:57:51.891292,365,163645071,891291786,map,-25871.3328075,-93272.7960908,1.53467106819,-0.00171530171826,0.00160359748443,0.788998150287,0.614391084781,"(0.000489252057170909, -5.458434804703929e-05, 0.0, 0.0, 0.0, -6.635010859613367e-05, -5.45843480470393e-05, 0.0006971083803900089, 0.0, 0.0, 0.0, -1.5811296097996746e-05, 0.0, 0.0, 0.0, 0.0, 0.0, 0.0, 0.0, 0.0, 0.0, 0.0, 0.0, 0.0, 0.0, 0.0, 0.0, 0.0, 0.0, 0.0, -6.635010859613366e-05, -1.581129609799675e-05, 0.0, 0.0, 0.0, 4.222755398836796e-05)"
1975/03/10/09:57:51.907378,366,163645071,907377986,map,-25871.3580776,-93272.6971247,1.53467106819,-0.00171601625303,0.00160283283472,0.789271899033,0.614039376272,"(0.0004914125257507848, -5.5327875007097744e-05, 0.0, 0.0, 0.0, -6.678856926526196e-05, -5.532787500709776e-05, 0.0007012265832884414, 0.0, 0.0, 0.0, -1.5972988859863716e-05, 0.0, 0.0, 0.0, 0.0, 0.0, 0.0, 0.0, 0.0, 0.0, 0.0, 0.0, 0.0, 0.0, 0.0, 0.0, 0.0, 0.0, 0.0, -6.678856926526198e-05, -1.5972988859863716e-05, 0.0, 0.0, 0.0, 4.2229664318855465e-05)"
1975/03/10/09:57:51.931509,367,163645071,931508793,map,-25871.3832849,-93272.5987536,1.53616440296,-0.00148975454698,0.00155296465998,0.789542468786,0.613692153213,"(0.0004903326008471208, -5.388956116722195e-05, 0.0, 0.0, 0.0, -6.655867206513928e-05, -5.388956116722196e-05, 0.0006940947388306468, 0.0, 0.0, 0.0, -1.5980754657694153e-05, 0.0, 0.0, 0.0, 0.0, 0.0, 0.0, 0.0, 0.0, 0.0, 0.0, 0.0, 0.0, 0.0, 0.0, 0.0, 0.0, 0.0, 0.0, -6.655867206513931e-05, -1.598075465769415e-05, 0.0, 0.0, 0.0, 4.2040952099682505e-05)"
1975/03/10/09:57:51.947611,368,163645071,947611460,map,-25871.4087177,-93272.4998075,1.53616440296,-0.00149042708442,0.00155231921699,0.789808219644,0.613350099955,"(0.0004901224956868006, -5.3045906114645384e-05, 0.0, 0.0, 0.0, -6.651565657569123e-05, -5.30459061146454e-05, 0.0006900227334610984, 0.0, 0.0, 0.0, -1.6032068087981652e-05, 0.0, 0.0, 0.0, 0.0, 0.0, 0.0, 0.0, 0.0, 0.0, 0.0, 0.0, 0.0, 0.0, 0.0, 0.0, 0.0, 0.0, 0.0, -6.651565657569125e-05, -1.6032068087981645e-05, 0.0, 0.0, 0.0, 4.1909239252208345e-05)"
1975/03/10/09:57:51.971741,369,163645071,971741485,map,-25871.4343751,-93272.4002917,1.53616440296,-0.00149110013541,0.0015516727205,0.790074135677,0.61300752774,"(0.0004907697402355161, -5.282969741850416e-05, 0.0, 0.0, 0.0, -6.664677394339243e-05, -5.282969741850417e-05, 0.0006891095664440611, 0.0, 0.0, 0.0, -1.6124206143869204e-05, 0.0, 0.0, 0.0, 0.0, 0.0, 0.0, 0.0, 0.0, 0.0, 0.0, 0.0, 0.0, 0.0, 0.0, 0.0, 0.0, 0.0, 0.0, -6.664677394339245e-05, -1.6124206143869197e-05, 0.0, 0.0, 0.0, 4.182919047293893e-05)"
1975/03/10/09:57:51.987812,370,163645071,987812151,map,-25871.4602544,-93272.3002266,1.53616440296,-0.00149176591926,0.00155103265198,0.790337143323,0.612668400373,"(0.0004922409860415289, -5.318141892846623e-05, 0.0, 0.0, 0.0, -6.694003278120163e-05, -5.318141892846623e-05, 0.0006910932059742798, 0.0, 0.0, 0.0, -1.6254869144521786e-05, 0.0, 0.0, 0.0, 0.0, 0.0, 0.0, 0.0, 0.0, 0.0, 0.0, 0.0, 0.0, 0.0, 0.0, 0.0, 0.0, 0.0, 0.0, -6.694003278120164e-05, -1.6254869144521776e-05, 0.0, 0.0, 0.0, 4.1795432725616884e-05)"
1975/03/10/09:57:52.012073,371,163645072,12072508,map,-25871.4863506,-93272.1996346,1.53616440296,-0.00149244926036,0.00155037513223,0.790607048162,0.612320066901,"(0.000494501398601672, -5.401996494866655e-05, 0.0, 0.0, 0.0, -6.738511159995514e-05, -5.401996494866656e-05, 0.0006956330703941976, 0.0, 0.0, 0.0, -1.6422121892994643e-05, 0.0, 0.0, 0.0, 0.0, 0.0, 0.0, 0.0, 0.0, 0.0, 0.0, 0.0, 0.0, 0.0, 0.0, 0.0, 0.0, 0.0, 0.0, -6.738511159995518e-05, -1.6422121892994633e-05, 0.0, 0.0, 0.0, 4.180339267685874e-05)"
1975/03/10/09:57:52.028157,372,163645072,28157186,map,-25871.5126626,-93272.0985369,1.53616440296,-0.00149314822379,0.00154970198012,0.790883083047,0.611963493913,"(0.0004975213079880674, -5.52677561973991e-05, 0.0, 0.0, 0.0, -6.797316603495196e-05, -5.526775619739911e-05, 0.0007024068320989935, 0.0, 0.0, 0.0, -1.6624431768231193e-05, 0.0, 0.0, 0.0, 0.0, 0.0, 0.0, 0.0, 0.0, 0.0, 0.0, 0.0, 0.0, 0.0, 0.0, 0.0, 0.0, 0.0, 0.0, -6.797316603495199e-05, -1.6624431768231183e-05, 0.0, 0.0, 0.0, 4.1849133939925935e-05)"
1975/03/10/09:57:52.052289,373,163645072,52288694,map,-25871.5389528,-93271.9960986,1.53311312199,-0.00111986383574,0.00123182724715,0.791135504532,0.611638653108,"(0.0004972464804698278, -5.4338613346274994e-05, 0.0, 0.0, 0.0, -6.789412487939079e-05, -5.4338613346274994e-05, 0.0006979247516214249, 0.0, 0.0, 0.0, -1.6665727070940008e-05, 0.0, 0.0, 0.0, 0.0, 0.0, 0.0, 0.0, 0.0, 0.0, 0.0, 0.0, 0.0, 0.0, 0.0, 0.0, 0.0, 0.0, 0.0, -6.789412487939082e-05, -1.666572707094e-05, 0.0, 0.0, 0.0, 4.170808144002334e-05)"
1975/03/10/09:57:52.068374,374,163645072,68373773,map,-25871.5654567,-93271.8932454,1.53311312199,-0.0011203752116,0.0012313621574,0.791389397498,0.611310109547,"(0.0004978503755848124, -5.40090475274883e-05, 0.0, 0.0, 0.0, -6.79956802658117e-05, -5.40090475274883e-05, 0.0006964920401647073, 0.0, 0.0, 0.0, -1.6750593401722237e-05, 0.0, 0.0, 0.0, 0.0, 0.0, 0.0, 0.0, 0.0, 0.0, 0.0, 0.0, 0.0, 0.0, 0.0, 0.0, 0.0, 0.0, 0.0, -6.799568026581174e-05, -1.6750593401722227e-05, 0.0, 0.0, 0.0, 4.16201656953436e-05)"
1975/03/10/09:57:52.092505,375,163645072,92504933,map,-25871.5921737,-93271.7899795,1.53311312199,-0.00112088169486,0.00123090113476,0.791640821365,0.610984482991,"(0.0004993035098149197, -5.4244076558768064e-05, 0.0, 0.0, 0.0, -6.826517351132752e-05, -5.424407655876807e-05, 0.0006979426076732782, 0.0, 0.0, 0.0, -1.687639899111181e-05, 0.0, 0.0, 0.0, 0.0, 0.0, 0.0, 0.0, 0.0, 0.0, 0.0, 0.0, 0.0, 0.0, 0.0, 0.0, 0.0, 0.0, 0.0, -6.826517351132756e-05, -1.6876398991111806e-05, 0.0, 0.0, 0.0, 4.157996798510996e-05)"
1975/03/10/09:57:52.108591,376,163645072,108591174,map,-25871.6191012,-93271.6863057,1.53311312199,-0.00112139235222,0.00123043592674,0.791894276971,0.610655944544,"(0.0005015721084631322, -5.497206553404382e-05, 0.0, 0.0, 0.0, -6.869171495952366e-05, -5.497206553404382e-05, 0.0007019758368186171, 0.0, 0.0, 0.0, -1.704094214322427e-05, 0.0, 0.0, 0.0, 0.0, 0.0, 0.0, 0.0, 0.0, 0.0, 0.0, 0.0, 0.0, 0.0, 0.0, 0.0, 0.0, 0.0, 0.0, -6.869171495952368e-05, -1.7040942143224265e-05, 0.0, 0.0, 0.0, 4.158272039004948e-05)"
1975/03/10/09:57:52.132721,377,163645072,132721178,map,-25871.6462379,-93271.58223,1.53311312199,-0.00112191075214,0.00122996326842,0.792151533991,0.610322190079,"(0.000504626135544023, -5.611791171311766e-05, 0.0, 0.0, 0.0, -6.926600263686699e-05, -5.611791171311766e-05, 0.0007082834429187133, 0.0, 0.0, 0.0, -1.7242430722307178e-05, 0.0, 0.0, 0.0, 0.0, 0.0, 0.0, 0.0, 0.0, 0.0, 0.0, 0.0, 0.0, 0.0, 0.0, 0.0, 0.0, 0.0, 0.0, -6.926600263686703e-05, -1.7242430722307175e-05, 0.0, 0.0, 0.0, 4.162430447147978e-05)"
1975/03/10/09:57:52.148806,378,163645072,148805891,map,-25871.67337,-93271.4783277,1.53166377544,-0.000798724001121,0.000828339989434,0.792407250175,0.60999133253,"(0.0005042594228554781, -5.500247281086895e-05, 0.0, 0.0, 0.0, -6.915337571814467e-05, -5.500247281086895e-05, 0.0007032027140028411, 0.0, 0.0, 0.0, -1.727903323433178e-05, 0.0, 0.0, 0.0, 0.0, 0.0, 0.0, 0.0, 0.0, 0.0, 0.0, 0.0, 0.0, 0.0, 0.0, 0.0, 0.0, 0.0, 0.0, -6.915337571814471e-05, -1.7279033234331772e-05, 0.0, 0.0, 0.0, 4.147577097944844e-05)"
1975/03/10/09:57:52.172931,379,163645072,172930615,map,-25871.7007293,-93271.3739789,1.53166377544,-0.000799079237762,0.000827997306662,0.792668828406,0.609651379368,"(0.0005048067558912292, -5.451258540861887e-05, 0.0, 0.0, 0.0, -6.922773262072333e-05, -5.451258540861887e-05, 0.000701249276161057, 0.0, 0.0, 0.0, -1.7361074766278667e-05, 0.0, 0.0, 0.0, 0.0, 0.0, 0.0, 0.0, 0.0, 0.0, 0.0, 0.0, 0.0, 0.0, 0.0, 0.0, 0.0, 0.0, 0.0, -6.922773262072337e-05, -1.736107476627866e-05, 0.0, 0.0, 0.0, 4.138189612785892e-05)"
1975/03/10/09:57:52.188982,380,163645072,188981533,map,-25871.7283159,-93271.2691892,1.53166377544,-0.000799434088877,0.000827654701916,0.79293008521,0.609311542531,"(0.0005062367676331176, -5.46102196552037e-05, 0.0, 0.0, 0.0, -6.94757521514038e-05, -5.461021965520369e-05, 0.0007022462655591527, 0.0, 0.0, 0.0, -1.748585480777681e-05, 0.0, 0.0, 0.0, 0.0, 0.0, 0.0, 0.0, 0.0, 0.0, 0.0, 0.0, 0.0, 0.0, 0.0, 0.0, 0.0, 0.0, 0.0, -6.947575215140384e-05, -1.7485854807776804e-05, 0.0, 0.0, 0.0, 4.133701403318135e-05)"
1975/03/10/09:57:52.213113,381,163645072,213112570,map,-25871.7561271,-93271.1639674,1.53166377544,-0.00079979174124,0.000827309095022,0.793193366396,0.608968767177,"(0.0005085133955070203, -5.521999950443308e-05, 0.0, 0.0, 0.0, -6.988594804818453e-05, -5.5219999504433064e-05, 0.0007058826384559919, 0.0, 0.0, 0.0, -1.7651089517660802e-05, 0.0, 0.0, 0.0, 0.0, 0.0, 0.0, 0.0, 0.0, 0.0, 0.0, 0.0, 0.0, 0.0, 0.0, 0.0, 0.0, 0.0, 0.0, -6.988594804818457e-05, -1.7651089517660795e-05, 0.0, 0.0, 0.0, 4.1336154820233814e-05)"
1975/03/10/09:57:52.229199,382,163645072,229199303,map,-25871.7838603,-93271.0594553,1.5305390358,-0.000355461470505,0.000360164660174,0.793459395558,0.608622979791,"(0.000507253372456825, -5.3601309757087775e-05, 0.0, 0.0, 0.0, -6.957531316077907e-05, -5.360130975708777e-05, 0.0006982405541109276, 0.0, 0.0, 0.0, -1.7638120212312638e-05, 0.0, 0.0, 0.0, 0.0, 0.0, 0.0, 0.0, 0.0, 0.0, 0.0, 0.0, 0.0, 0.0, 0.0, 0.0, 0.0, 0.0, 0.0, -6.957531316077911e-05, -1.763812021231263e-05, 0.0, 0.0, 0.0, 4.1135463572500595e-05)"
1975/03/10/09:57:52.253326,383,163645072,253326406,map,-25871.8118938,-93270.9542403,1.5305390358,-0.000355613405878,0.000360014645553,0.79371612585,0.608288135257,"(0.0005069519524587786, -5.260509532628291e-05, 0.0, 0.0, 0.0, -6.946925608141898e-05, -5.260509532628289e-05, 0.0006937244992992763, 0.0, 0.0, 0.0, -1.767568433858868e-05, 0.0, 0.0, 0.0, 0.0, 0.0, 0.0, 0.0, 0.0, 0.0, 0.0, 0.0, 0.0, 0.0, 0.0, 0.0, 0.0, 0.0, 0.0, -6.9469256081419e-05, -1.767568433858867e-05, 0.0, 0.0, 0.0, 4.099557130958537e-05)"
1975/03/10/09:57:52.269412,384,163645072,269412122,map,-25871.8401996,-93270.8484143,1.5305390358,-0.000355766755328,0.000359863106272,0.793975210725,0.607949922842,"(0.0005076251925505466, -5.2255345063628374e-05, 0.0, 0.0, 0.0, -6.955866263057751e-05, -5.225534506362833e-05, 0.0006924237329905499, 0.0, 0.0, 0.0, -1.7761854512271274e-05, 0.0, 0.0, 0.0, 0.0, 0.0, 0.0, 0.0, 0.0, 0.0, 0.0, 0.0, 0.0, 0.0, 0.0, 0.0, 0.0, 0.0, 0.0, -6.955866263057755e-05, -1.776185451227126e-05, 0.0, 0.0, 0.0, 4.09104584207502e-05)"
