time,.header.seq,.header.stamp.secs,.header.stamp.nsecs,.header.frame_id,.pose.pose.position.x,.pose.pose.position.y,.pose.pose.position.z,.pose.pose.orientation.x,.pose.pose.orientation.y,.pose.pose.orientation.z,.pose.pose.orientation.w,.pose.covariance
1975/03/10/09:57:50.025675,44,163645070,4865000,map,-25869.6308594,-93280.6171875,1.54772675037,-0.000812605263676,0.00109282976834,0.767419076536,0.641144367519,"(0.0025009536743164063, 1.430511474609375e-06, 0.0, 0.0, 0.0, 0.0, 1.430511474609375e-06, 0.002511444091796875, 0.0, 0.0, 0.0, 0.0, 0.0, 0.0, 0.0, 0.0, 0.0, 0.0, 0.0, 0.0, 0.0, 0.0, 0.0, 0.0, 0.0, 0.0, 0.0, 0.0, 0.0, 0.0, 0.0, 0.0, 0.0, 0.0, 0.0, 0.000625)"
1975/03/10/09:57:50.122162,45,163645070,103865000,map,-25869.6953125,-93280.2890625,1.54699683189,-0.000710072903771,0.00097951733004,0.768264793542,0.640131065059,"(0.00250154972076416, 0.0, 0.0, 0.0, 0.0, 0.0, 0.0, 0.0025152587890625, 0.0, 0.0, 0.0, 0.0, 0.0, 0.0, 0.0, 0.0, 0.0, 0.0, 0.0, 0.0, 0.0, 0.0, 0.0, 0.0, 0.0, 0.0, 0.0, 0.0, 0.0, 0.0, 0.0, 0.0, 0.0, 0.0, 0.0, 0.000625)"
1975/03/10/09:57:50.226674,46,163645070,204865000,map,-25869.7480469,-93279.953125,1.54574906826,-0.000525646355895,0.000791592279104,0.769350102832,0.638826669372,"(0.002507033348083496, -1.9073486328125e-06, 0.0, 0.0, 0.0, 0.0, -1.9073486328125e-06, 0.00250762939453125, 0.0, 0.0, 0.0, 0.0, 0.0, 0.0, 0.0, 0.0, 0.0, 0.0, 0.0, 0.0, 0.0, 0.0, 0.0, 0.0, 0.0, 0.0, 0.0, 0.0, 0.0, 0.0, 0.0, 0.0, 0.0, 0.0, 0.0, 0.000625)"
1975/03/10/09:57:50.323261,47,163645070,303865000,map,-25869.8183594,-93279.6015625,1.54418706894,-0.000393951818177,0.00064662455149,0.770270766298,0.637716503288,"(0.0025007152557373047, -1.430511474609375e-06, 0.0, 0.0, 0.0, 0.0, -1.430511474609375e-06, 0.0025133514404296876, 0.0, 0.0, 0.0, 0.0, 0.0, 0.0, 0.0, 0.0, 0.0, 0.0, 0.0, 0.0, 0.0, 0.0, 0.0, 0.0, 0.0, 0.0, 0.0, 0.0, 0.0, 0.0, 0.0, 0.0, 0.0, 0.0, 0.0, 0.000625)"
1975/03/10/09:57:50.419715,48,163645070,403865000,map,-25869.8867188,-93279.2578125,1.54705429077,-0.000314175840621,0.000663244086645,0.771272213453,0.636505020872,"(0.0025025033950805665, 4.76837158203125e-06, 0.0, 0.0, 0.0, 0.0, 4.76837158203125e-06, 0.002511444091796875, 0.0, 0.0, 0.0, 0.0, 0.0, 0.0, 0.0, 0.0, 0.0, 0.0, 0.0, 0.0, 0.0, 0.0, 0.0, 0.0, 0.0, 0.0, 0.0, 0.0, 0.0, 0.0, 0.0, 0.0, 0.0, 0.0, 0.0, 0.000625)"
1975/03/10/09:57:50.524225,49,163645070,504865000,map,-25869.96875,-93278.8828125,1.54634523392,-0.000183522407276,0.000620354186648,0.772202744983,0.635375844642,"(0.0025007152557373047, 0.0, 0.0, 0.0, 0.0, 0.0, 0.0, 0.0025, 0.0, 0.0, 0.0, 0.0, 0.0, 0.0, 0.0, 0.0, 0.0, 0.0, 0.0, 0.0, 0.0, 0.0, 0.0, 0.0, 0.0, 0.0, 0.0, 0.0, 0.0, 0.0, 0.0, 0.0, 0.0, 0.0, 0.0, 0.000625)"
1975/03/10/09:57:50.620725,50,163645070,603865000,map,-25870.0410156,-93278.5,1.54719185829,-2.98245530927e-05,0.000578906430011,0.773451407074,0.63385530781,"(0.0025008344650268555, 9.5367431640625e-07, 0.0, 0.0, 0.0, 0.0, 9.5367431640625e-07, 0.0025095367431640626, 0.0, 0.0, 0.0, 0.0, 0.0, 0.0, 0.0, 0.0, 0.0, 0.0, 0.0, 0.0, 0.0, 0.0, 0.0, 0.0, 0.0, 0.0, 0.0, 0.0, 0.0, 0.0, 0.0, 0.0, 0.0, 0.0, 0.0, 0.000625)"
1975/03/10/09:57:50.725252,51,163645070,702865000,map,-25870.1171875,-93278.078125,1.5456430912,0.000201165005883,0.000409022279686,0.774807168086,0.632197454995,"(0.0025009536743164063, 1.430511474609375e-06, 0.0, 0.0, 0.0, 0.0, 1.430511474609375e-06, 0.00250762939453125, 0.0, 0.0, 0.0, 0.0, 0.0, 0.0, 0.0, 0.0, 0.0, 0.0, 0.0, 0.0, 0.0, 0.0, 0.0, 0.0, 0.0, 0.0, 0.0, 0.0, 0.0, 0.0, 0.0, 0.0, 0.0, 0.0, 0.0, 0.000625)"
1975/03/10/09:57:50.821767,52,163645070,803865000,map,-25870.203125,-93277.703125,1.54343473911,0.000178728860596,0.000281999255253,0.775902840435,0.63085228293,"(0.0025030994415283204, 0.0, 0.0, 0.0, 0.0, 0.0, 0.0, 0.0025, 0.0, 0.0, 0.0, 0.0, 0.0, 0.0, 0.0, 0.0, 0.0, 0.0, 0.0, 0.0, 0.0, 0.0, 0.0, 0.0, 0.0, 0.0, 0.0, 0.0, 0.0, 0.0, 0.0, 0.0, 0.0, 0.0, 0.0, 0.000625)"
1975/03/10/09:57:50.926188,53,163645070,903864000,map,-25870.2871094,-93277.3125,1.54563343525,7.0087830305e-05,0.000317446211634,0.777189824331,0.629266176831,"(0.0025009536743164063, -1.430511474609375e-06, 0.0, 0.0, 0.0, 0.0, -1.430511474609375e-06, 0.0025095367431640626, 0.0, 0.0, 0.0, 0.0, 0.0, 0.0, 0.0, 0.0, 0.0, 0.0, 0.0, 0.0, 0.0, 0.0, 0.0, 0.0, 0.0, 0.0, 0.0, 0.0, 0.0, 0.0, 0.0, 0.0, 0.0, 0.0, 0.0, 0.000625)"
1975/03/10/09:57:51.030765,54,163645071,3864000,map,-25870.3671875,-93276.890625,1.54727959633,7.94252035595e-05,0.000406063014983,0.778500884404,0.627643336001,"(0.0025052452087402344, 4.76837158203125e-06, 0.0, 0.0, 0.0, 0.0, 4.76837158203125e-06, 0.0025152587890625, 0.0, 0.0, 0.0, 0.0, 0.0, 0.0, 0.0, 0.0, 0.0, 0.0, 0.0, 0.0, 0.0, 0.0, 0.0, 0.0, 0.0, 0.0, 0.0, 0.0, 0.0, 0.0, 0.0, 0.0, 0.0, 0.0, 0.0, 0.000625)"
1975/03/10/09:57:51.127285,55,163645071,103864000,map,-25870.4648438,-93276.453125,1.54682159424,-3.82004845829e-06,0.000454512056944,0.779643470688,0.626223442562,"(0.0025025033950805665, 2.384185791015625e-06, 0.0, 0.0, 0.0, 0.0, 2.384185791015625e-06, 0.0025152587890625, 0.0, 0.0, 0.0, 0.0, 0.0, 0.0, 0.0, 0.0, 0.0, 0.0, 0.0, 0.0, 0.0, 0.0, 0.0, 0.0, 0.0, 0.0, 0.0, 0.0, 0.0, 0.0, 0.0, 0.0, 0.0, 0.0, 0.0, 0.000625)"
1975/03/10/09:57:51.223802,56,163645071,202864000,map,-25870.5429688,-93276.046875,1.54559934139,-0.000256498084185,0.000534565200735,0.780803420153,0.624776424712,"(0.0025035762786865235, 4.76837158203125e-07, 0.0, 0.0, 0.0, 0.0, 4.76837158203125e-07, 0.002511444091796875, 0.0, 0.0, 0.0, 0.0, 0.0, 0.0, 0.0, 0.0, 0.0, 0.0, 0.0, 0.0, 0.0, 0.0, 0.0, 0.0, 0.0, 0.0, 0.0, 0.0, 0.0, 0.0, 0.0, 0.0, 0.0, 0.0, 0.0, 0.000625)"
1975/03/10/09:57:51.320214,57,163645071,302864000,map,-25870.6523438,-93275.59375,1.54501831532,-0.000508801805674,0.000791266228555,0.781822471988,0.623500392844,"(0.0025009536743164063, 4.76837158203125e-07, 0.0, 0.0, 0.0, 0.0, 4.76837158203125e-07, 0.0025152587890625, 0.0, 0.0, 0.0, 0.0, 0.0, 0.0, 0.0, 0.0, 0.0, 0.0, 0.0, 0.0, 0.0, 0.0, 0.0, 0.0, 0.0, 0.0, 0.0, 0.0, 0.0, 0.0, 0.0, 0.0, 0.0, 0.0, 0.0, 0.000625)"
1975/03/10/09:57:51.424739,58,163645071,402864000,map,-25870.7617188,-93275.140625,1.54170966148,-0.000757997664127,0.000936237124242,0.782926414341,0.62211316798,"(0.002500596046447754, -1.430511474609375e-06, 0.0, 0.0, 0.0, 0.0, -1.430511474609375e-06, 0.0025152587890625, 0.0, 0.0, 0.0, 0.0, 0.0, 0.0, 0.0, 0.0, 0.0, 0.0, 0.0, 0.0, 0.0, 0.0, 0.0, 0.0, 0.0, 0.0, 0.0, 0.0, 0.0, 0.0, 0.0, 0.0, 0.0, 0.0, 0.0, 0.000625)"
1975/03/10/09:57:51.529317,59,163645071,502864000,map,-25870.8808594,-93274.671875,1.54257595539,-0.00115011846094,0.00118945436454,0.784023858565,0.62072841828,"(0.0025009536743164063, -2.86102294921875e-06, 0.0, 0.0, 0.0, 0.0, -2.86102294921875e-06, 0.0025152587890625, 0.0, 0.0, 0.0, 0.0, 0.0, 0.0, 0.0, 0.0, 0.0, 0.0, 0.0, 0.0, 0.0, 0.0, 0.0, 0.0, 0.0, 0.0, 0.0, 0.0, 0.0, 0.0, 0.0, 0.0, 0.0, 0.0, 0.0, 0.000625)"
1975/03/10/09:57:51.625870,60,163645071,602864000,map,-25870.9960938,-93274.1875,1.54252886772,-0.00146322786471,0.00157361877359,0.785302684169,0.619108304525,"(0.002500596046447754, -2.384185791015625e-06, 0.0, 0.0, 0.0, 0.0, -2.384185791015625e-06, 0.0025095367431640626, 0.0, 0.0, 0.0, 0.0, 0.0, 0.0, 0.0, 0.0, 0.0, 0.0, 0.0, 0.0, 0.0, 0.0, 0.0, 0.0, 0.0, 0.0, 0.0, 0.0, 0.0, 0.0, 0.0, 0.0, 0.0, 0.0, 0.0, 0.000625)"
1975/03/10/09:57:51.722406,61,163645071,702864000,map,-25871.1074219,-93273.703125,1.54166674614,-0.00171488578308,0.00177981609187,0.786592596394,0.617467346004,"(0.0025, 0.0, 0.0, 0.0, 0.0, 0.0, 0.0, 0.0025, 0.0, 0.0, 0.0, 0.0, 0.0, 0.0, 0.0, 0.0, 0.0, 0.0, 0.0, 0.0, 0.0, 0.0, 0.0, 0.0, 0.0, 0.0, 0.0, 0.0, 0.0, 0.0, 0.0, 0.0, 0.0, 0.0, 0.0, 0.000625)"
1975/03/10/09:57:51.818877,62,163645071,803864000,map,-25871.2324219,-93273.2265625,1.53467106819,-0.0017122703024,0.00160683381296,0.787836475249,0.615879943264,"(0.0025025033950805665, 1.9073486328125e-06, 0.0, 0.0, 0.0, 0.0, 1.9073486328125e-06, 0.002511444091796875, 0.0, 0.0, 0.0, 0.0, 0.0, 0.0, 0.0, 0.0, 0.0, 0.0, 0.0, 0.0, 0.0, 0.0, 0.0, 0.0, 0.0, 0.0, 0.0, 0.0, 0.0, 0.0, 0.0, 0.0, 0.0, 0.0, 0.0, 0.000625)"
1975/03/10/09:57:51.923466,63,163645071,903863000,map,-25871.3535156,-93272.7421875,1.53616440296,-0.00148860578819,0.00155406583194,0.789088452683,0.61427581227,"(0.0025009536743164063, 2.384185791015625e-06, 0.0, 0.0, 0.0, 0.0, 2.384185791015625e-06, 0.0025152587890625, 0.0, 0.0, 0.0, 0.0, 0.0, 0.0, 0.0, 0.0, 0.0, 0.0, 0.0, 0.0, 0.0, 0.0, 0.0, 0.0, 0.0, 0.0, 0.0, 0.0, 0.0, 0.0, 0.0, 0.0, 0.0, 0.0, 0.0, 0.000625)"
1975/03/10/09:57:52.028157,64,163645072,3863000,map,-25871.4765625,-93272.2109375,1.53311312199,-0.00111830939608,0.00123323860499,0.790363491663,0.61263592292,"(0.0025, 0.0, 0.0, 0.0, 0.0, 0.0, 0.0, 0.0025152587890625, 0.0, 0.0, 0.0, 0.0, 0.0, 0.0, 0.0, 0.0, 0.0, 0.0, 0.0, 0.0, 0.0, 0.0, 0.0, 0.0, 0.0, 0.0, 0.0, 0.0, 0.0, 0.0, 0.0, 0.0, 0.0, 0.0, 0.0, 0.000625)"
1975/03/10/09:57:52.132721,65,163645072,103863000,map,-25871.6074219,-93271.703125,1.53166377544,-0.000797771944265,0.000829256949352,0.791706018354,0.610901180759,"(0.0025007152557373047, 1.9073486328125e-06, 0.0, 0.0, 0.0, 0.0, 1.9073486328125e-06, 0.0025152587890625, 0.0, 0.0, 0.0, 0.0, 0.0, 0.0, 0.0, 0.0, 0.0, 0.0, 0.0, 0.0, 0.0, 0.0, 0.0, 0.0, 0.0, 0.0, 0.0, 0.0, 0.0, 0.0, 0.0, 0.0, 0.0, 0.0, 0.0, 0.000625)"
1975/03/10/09:57:52.221156,66,163645072,203863000,map,-25871.7421875,-93271.1953125,1.5305390358,-0.000355268838372,0.000360354685228,0.793133851988,0.609047177975,"(0.0025025033950805665, 2.384185791015625e-06, 0.0, 0.0, 0.0, 0.0, 2.384185791015625e-06, 0.0025152587890625, 0.0, 0.0, 0.0, 0.0, 0.0, 0.0, 0.0, 0.0, 0.0, 0.0, 0.0, 0.0, 0.0, 0.0, 0.0, 0.0, 0.0, 0.0, 0.0, 0.0, 0.0, 0.0, 0.0, 0.0, 0.0, 0.0, 0.0, 0.000625)"
1975/03/10/09:57:52.325717,67,163645072,303863000,map,-25871.8867188,-93270.65625,1.53112900257,-3.22313901799e-05,0.00023144712175,0.794441012066,0.607341307176,"(0.0025009536743164063, 4.76837158203125e-07, 0.0, 0.0, 0.0, 0.0, 4.76837158203125e-07, 0.0025133514404296876, 0.0, 0.0, 0.0, 0.0, 0.0, 0.0, 0.0, 0.0, 0.0, 0.0, 0.0, 0.0, 0.0, 0.0, 0.0, 0.0, 0.0, 0.0, 0.0, 0.0, 0.0, 0.0, 0.0, 0.0, 0.0, 0.0, 0.0, 0.000625)"
1975/03/10/09:57:52.430256,68,163645072,403863000,map,-25872.0351562,-93270.1171875,1.53131604195,0.000134262019891,8.32785186539e-06,0.795841237779,0.605505339224,"(0.0025009536743164063, 9.5367431640625e-07, 0.0, 0.0, 0.0, 0.0, 9.5367431640625e-07, 0.0025152587890625, 0.0, 0.0, 0.0, 0.0, 0.0, 0.0, 0.0, 0.0, 0.0, 0.0, 0.0, 0.0, 0.0, 0.0, 0.0, 0.0, 0.0, 0.0, 0.0, 0.0, 0.0, 0.0, 0.0, 0.0, 0.0, 0.0, 0.0, 0.000625)"
1975/03/10/09:57:52.526725,69,163645072,504863000,map,-25872.1835938,-93269.578125,1.5311242342,8.24519661117e-05,5.03641521408e-05,0.797093202499,0.603856283788,"(0.00250154972076416, 2.86102294921875e-06, 0.0, 0.0, 0.0, 0.0, 2.86102294921875e-06, 0.0025095367431640626, 0.0, 0.0, 0.0, 0.0, 0.0, 0.0, 0.0, 0.0, 0.0, 0.0, 0.0, 0.0, 0.0, 0.0, 0.0, 0.0, 0.0, 0.0, 0.0, 0.0, 0.0, 0.0, 0.0, 0.0, 0.0, 0.0, 0.0, 0.000625)"
1975/03/10/09:57:52.631273,70,163645072,603863000,map,-25872.3417969,-93269.046875,1.53062939644,-3.66922594845e-05,0.000141852432989,0.798562458974,0.60191188921,"(0.0025084638595581055, 9.5367431640625e-06, 0.0, 0.0, 0.0, 0.0, 9.5367431640625e-06, 0.0025133514404296876, 0.0, 0.0, 0.0, 0.0, 0.0, 0.0, 0.0, 0.0, 0.0, 0.0, 0.0, 0.0, 0.0, 0.0, 0.0, 0.0, 0.0, 0.0, 0.0, 0.0, 0.0, 0.0, 0.0, 0.0, 0.0, 0.0, 0.0, 0.000625)"
1975/03/10/09:57:52.727736,71,163645072,703863000,map,-25872.5117188,-93268.4609375,1.53017365932,-3.58314293309e-05,0.000127315708395,0.799830023764,0.600226516484,"(0.0025009536743164063, 1.430511474609375e-06, 0.0, 0.0, 0.0, 0.0, 1.430511474609375e-06, 0.002511444091796875, 0.0, 0.0, 0.0, 0.0, 0.0, 0.0, 0.0, 0.0, 0.0, 0.0, 0.0, 0.0, 0.0, 0.0, 0.0, 0.0, 0.0, 0.0, 0.0, 0.0, 0.0, 0.0, 0.0, 0.0, 0.0, 0.0, 0.0, 0.000625)"
1975/03/10/09:57:52.832304,72,163645072,804863000,map,-25872.6914062,-93267.890625,1.53199017048,7.32039084305e-05,2.02438801841e-05,0.801238218475,0.598345477546,"(0.00250762939453125, 5.7220458984375e-06, 0.0, 0.0, 0.0, 0.0, 5.7220458984375e-06, 0.00250762939453125, 0.0, 0.0, 0.0, 0.0, 0.0, 0.0, 0.0, 0.0, 0.0, 0.0, 0.0, 0.0, 0.0, 0.0, 0.0, 0.0, 0.0, 0.0, 0.0, 0.0, 0.0, 0.0, 0.0, 0.0, 0.0, 0.0, 0.0, 0.000625)"
1975/03/10/09:57:52.928805,73,163645072,902863000,map,-25872.8808594,-93267.296875,1.53407347202,0.000284108564636,-3.86741542915e-05,0.802635330704,0.596469992144,"(0.0025008344650268555, -9.5367431640625e-07, 0.0, 0.0, 0.0, 0.0, -9.5367431640625e-07, 0.002511444091796875, 0.0, 0.0, 0.0, 0.0, 0.0, 0.0, 0.0, 0.0, 0.0, 0.0, 0.0, 0.0, 0.0, 0.0, 0.0, 0.0, 0.0, 0.0, 0.0, 0.0, 0.0, 0.0, 0.0, 0.0, 0.0, 0.0, 0.0, 0.000625)"
1975/03/10/09:57:53.025291,74,163645073,4862000,map,-25873.0546875,-93266.71875,1.53358316422,0.000178804779361,-6.51303312393e-06,0.804024040416,0.594596767199,"(0.0025067949295043946, -7.62939453125e-06, 0.0, 0.0, 0.0, 0.0, -7.62939453125e-06, 0.0025152587890625, 0.0, 0.0, 0.0, 0.0, 0.0, 0.0, 0.0, 0.0, 0.0, 0.0, 0.0, 0.0, 0.0, 0.0, 0.0, 0.0, 0.0, 0.0, 0.0, 0.0, 0.0, 0.0, 0.0, 0.0, 0.0, 0.0, 0.0, 0.000625)"
1975/03/10/09:57:53.129862,75,163645073,103862000,map,-25873.2382812,-93266.140625,1.53317511082,-0.000204004715256,0.000300121998583,0.805430675497,0.592689891628,"(0.0025, -4.76837158203125e-07, 0.0, 0.0, 0.0, 0.0, -4.76837158203125e-07, 0.0025152587890625, 0.0, 0.0, 0.0, 0.0, 0.0, 0.0, 0.0, 0.0, 0.0, 0.0, 0.0, 0.0, 0.0, 0.0, 0.0, 0.0, 0.0, 0.0, 0.0, 0.0, 0.0, 0.0, 0.0, 0.0, 0.0, 0.0, 0.0, 0.000625)"
1975/03/10/09:57:53.226380,76,163645073,204862000,map,-25873.4316406,-93265.515625,1.53224909306,-0.000766852494599,0.000785092842102,0.806568550189,0.591139551093,"(0.0025, 0.0, 0.0, 0.0, 0.0, 0.0, 0.0, 0.0025152587890625, 0.0, 0.0, 0.0, 0.0, 0.0, 0.0, 0.0, 0.0, 0.0, 0.0, 0.0, 0.0, 0.0, 0.0, 0.0, 0.0, 0.0, 0.0, 0.0, 0.0, 0.0, 0.0, 0.0, 0.0, 0.0, 0.0, 0.0, 0.000625)"
1975/03/10/09:57:53.330852,77,163645073,304862000,map,-25873.6328125,-93264.8984375,1.53058373928,-0.00141269342138,0.00121593035844,0.807845591263,0.589391168431,"(0.0025, 0.0, 0.0, 0.0, 0.0, 0.0, 0.0, 0.0025095367431640626, 0.0, 0.0, 0.0, 0.0, 0.0, 0.0, 0.0, 0.0, 0.0, 0.0, 0.0, 0.0, 0.0, 0.0, 0.0, 0.0, 0.0, 0.0, 0.0, 0.0, 0.0, 0.0, 0.0, 0.0, 0.0, 0.0, 0.0, 0.000625)"
1975/03/10/09:57:53.427388,78,163645073,403862000,map,-25873.8359375,-93264.2578125,1.52674007416,-0.00162739298736,0.00122423709867,0.809002426609,0.587801726961,"(0.0025008344650268555, -1.9073486328125e-06, 0.0, 0.0, 0.0, 0.0, -1.9073486328125e-06, 0.00250762939453125, 0.0, 0.0, 0.0, 0.0, 0.0, 0.0, 0.0, 0.0, 0.0, 0.0, 0.0, 0.0, 0.0, 0.0, 0.0, 0.0, 0.0, 0.0, 0.0, 0.0, 0.0, 0.0, 0.0, 0.0, 0.0, 0.0, 0.0, 0.000625)"
1975/03/10/09:57:53.523878,79,163645073,503862000,map,-25874.0546875,-93263.6015625,1.52453255653,-0.00149060611924,0.00108502140915,0.809954298322,0.586490052677,"(0.0025020265579223633, 2.384185791015625e-06, 0.0, 0.0, 0.0, 0.0, 2.384185791015625e-06, 0.0025095367431640626, 0.0, 0.0, 0.0, 0.0, 0.0, 0.0, 0.0, 0.0, 0.0, 0.0, 0.0, 0.0, 0.0, 0.0, 0.0, 0.0, 0.0, 0.0, 0.0, 0.0, 0.0, 0.0, 0.0, 0.0, 0.0, 0.0, 0.0, 0.000625)"
1975/03/10/09:57:53.628398,80,163645073,603862000,map,-25874.2636719,-93262.96875,1.52164614201,-0.00115535339958,0.000826231911923,0.811232191247,0.584722333336,"(0.0025035762786865235, -9.5367431640625e-07, 0.0, 0.0, 0.0, 0.0, -9.5367431640625e-07, 0.0025152587890625, 0.0, 0.0, 0.0, 0.0, 0.0, 0.0, 0.0, 0.0, 0.0, 0.0, 0.0, 0.0, 0.0, 0.0, 0.0, 0.0, 0.0, 0.0, 0.0, 0.0, 0.0, 0.0, 0.0, 0.0, 0.0, 0.0, 0.0, 0.000625)"
1975/03/10/09:57:53.724895,81,163645073,703862000,map,-25874.4921875,-93262.3046875,1.52134609222,-0.000927874732726,0.000768549190202,0.812073590071,0.583553697624,"(0.0025009536743164063, -2.384185791015625e-06, 0.0, 0.0, 0.0, 0.0, -2.384185791015625e-06, 0.0025152587890625, 0.0, 0.0, 0.0, 0.0, 0.0, 0.0, 0.0, 0.0, 0.0, 0.0, 0.0, 0.0, 0.0, 0.0, 0.0, 0.0, 0.0, 0.0, 0.0, 0.0, 0.0, 0.0, 0.0, 0.0, 0.0, 0.0, 0.0, 0.000625)"
1975/03/10/09:57:53.829457,82,163645073,803862000,map,-25874.7207031,-93261.6171875,1.51970887184,-0.00111111136625,0.000818690787717,0.813143238612,0.582061971583,"(0.0025020265579223633, -3.814697265625e-06, 0.0, 0.0, 0.0, 0.0, -3.814697265625e-06, 0.0025095367431640626, 0.0, 0.0, 0.0, 0.0, 0.0, 0.0, 0.0, 0.0, 0.0, 0.0, 0.0, 0.0, 0.0, 0.0, 0.0, 0.0, 0.0, 0.0, 0.0, 0.0, 0.0, 0.0, 0.0, 0.0, 0.0, 0.0, 0.0, 0.000625)"
1975/03/10/09:57:53.926021,83,163645073,903862000,map,-25874.9335938,-93260.953125,1.51644825935,-0.00150230135622,0.00100480436622,0.814182648738,0.58060597637,"(0.0025040531158447266, 0.0, 0.0, 0.0, 0.0, 0.0, 0.0, 0.0025, 0.0, 0.0, 0.0, 0.0, 0.0, 0.0, 0.0, 0.0, 0.0, 0.0, 0.0, 0.0, 0.0, 0.0, 0.0, 0.0, 0.0, 0.0, 0.0, 0.0, 0.0, 0.0, 0.0, 0.0, 0.0, 0.0, 0.0, 0.000625)"
1975/03/10/09:57:54.022539,84,163645074,4861000,map,-25875.1738281,-93260.2734375,1.5130199194,-0.00155588330826,0.00117680855369,0.815214659522,0.579155660486,"(0.0025009536743164063, -4.76837158203125e-07, 0.0, 0.0, 0.0, 0.0, -4.76837158203125e-07, 0.0025152587890625, 0.0, 0.0, 0.0, 0.0, 0.0, 0.0, 0.0, 0.0, 0.0, 0.0, 0.0, 0.0, 0.0, 0.0, 0.0, 0.0, 0.0, 0.0, 0.0, 0.0, 0.0, 0.0, 0.0, 0.0, 0.0, 0.0, 0.0, 0.000625)"
1975/03/10/09:57:54.127030,85,163645074,103861000,map,-25875.4160156,-93259.578125,1.51022362709,-0.00159140101238,0.00112228250397,0.816349005541,0.577555601562,"(0.0025007152557373047, -1.430511474609375e-06, 0.0, 0.0, 0.0, 0.0, -1.430511474609375e-06, 0.0025152587890625, 0.0, 0.0, 0.0, 0.0, 0.0, 0.0, 0.0, 0.0, 0.0, 0.0, 0.0, 0.0, 0.0, 0.0, 0.0, 0.0, 0.0, 0.0, 0.0, 0.0, 0.0, 0.0, 0.0, 0.0, 0.0, 0.0, 0.0, 0.000625)"
1975/03/10/09:57:54.231572,86,163645074,203861000,map,-25875.6777344,-93258.8828125,1.50571525097,-0.00152125690708,0.00118595867913,0.817237593351,0.576297688083,"(0.0025023841857910157, -1.430511474609375e-06, 0.0, 0.0, 0.0, 0.0, -1.430511474609375e-06, 0.002511444091796875, 0.0, 0.0, 0.0, 0.0, 0.0, 0.0, 0.0, 0.0, 0.0, 0.0, 0.0, 0.0, 0.0, 0.0, 0.0, 0.0, 0.0, 0.0, 0.0, 0.0, 0.0, 0.0, 0.0, 0.0, 0.0, 0.0, 0.0, 0.000625)"
1975/03/10/09:57:54.328110,87,163645074,302861000,map,-25875.9296875,-93258.171875,1.50343894958,-0.00133384692258,0.00110887102425,0.818226109391,0.574893859469,"(0.0025009536743164063, -4.76837158203125e-07, 0.0, 0.0, 0.0, 0.0, -4.76837158203125e-07, 0.0025133514404296876, 0.0, 0.0, 0.0, 0.0, 0.0, 0.0, 0.0, 0.0, 0.0, 0.0, 0.0, 0.0, 0.0, 0.0, 0.0, 0.0, 0.0, 0.0, 0.0, 0.0, 0.0, 0.0, 0.0, 0.0, 0.0, 0.0, 0.0, 0.000625)"
1975/03/10/09:57:54.424635,88,163645074,403861000,map,-25876.1796875,-93257.4609375,1.50102782249,-0.00113030646992,0.000882178944749,0.819116016834,0.573626056666,"(0.0025040531158447266, 0.0, 0.0, 0.0, 0.0, 0.0, 0.0, 0.0025, 0.0, 0.0, 0.0, 0.0, 0.0, 0.0, 0.0, 0.0, 0.0, 0.0, 0.0, 0.0, 0.0, 0.0, 0.0, 0.0, 0.0, 0.0, 0.0, 0.0, 0.0, 0.0, 0.0, 0.0, 0.0, 0.0, 0.0, 0.000625)"
1975/03/10/09:57:54.529142,89,163645074,502861000,map,-25876.4511719,-93256.7265625,1.49963343143,-0.000898695786588,0.000690435293026,0.820114534373,0.572198173792,"(0.0025008344650268555, 4.76837158203125e-07, 0.0, 0.0, 0.0, 0.0, 4.76837158203125e-07, 0.0025133514404296876, 0.0, 0.0, 0.0, 0.0, 0.0, 0.0, 0.0, 0.0, 0.0, 0.0, 0.0, 0.0, 0.0, 0.0, 0.0, 0.0, 0.0, 0.0, 0.0, 0.0, 0.0, 0.0, 0.0, 0.0, 0.0, 0.0, 0.0, 0.000625)"
1975/03/10/09:57:54.633679,90,163645074,603861000,map,-25876.7128906,-93256.0,1.49849891663,-0.000798676193436,0.000569612816819,0.821084767323,0.570805421522,"(0.0025009536743164063, 4.76837158203125e-07, 0.0, 0.0, 0.0, 0.0, 4.76837158203125e-07, 0.0025, 0.0, 0.0, 0.0, 0.0, 0.0, 0.0, 0.0, 0.0, 0.0, 0.0, 0.0, 0.0, 0.0, 0.0, 0.0, 0.0, 0.0, 0.0, 0.0, 0.0, 0.0, 0.0, 0.0, 0.0, 0.0, 0.0, 0.0, 0.000625)"
1975/03/10/09:57:54.738250,91,163645074,702861000,map,-25876.9960938,-93255.265625,1.49697875977,-0.000783674457618,0.000573350947439,0.822138254182,0.569287064092,"(0.0025009536743164063, -1.9073486328125e-06, 0.0, 0.0, 0.0, 0.0, -1.9073486328125e-06, 0.002511444091796875, 0.0, 0.0, 0.0, 0.0, 0.0, 0.0, 0.0, 0.0, 0.0, 0.0, 0.0, 0.0, 0.0, 0.0, 0.0, 0.0, 0.0, 0.0, 0.0, 0.0, 0.0, 0.0, 0.0, 0.0, 0.0, 0.0, 0.0, 0.000625)"
1975/03/10/09:57:54.834770,92,163645074,803861000,map,-25877.2792969,-93254.5,1.49649524689,-0.000814707869415,0.000662108151351,0.823135987262,0.567843291372,"(0.0025007152557373047, 2.86102294921875e-06, 0.0, 0.0, 0.0, 0.0, 2.86102294921875e-06, 0.0025095367431640626, 0.0, 0.0, 0.0, 0.0, 0.0, 0.0, 0.0, 0.0, 0.0, 0.0, 0.0, 0.0, 0.0, 0.0, 0.0, 0.0, 0.0, 0.0, 0.0, 0.0, 0.0, 0.0, 0.0, 0.0, 0.0, 0.0, 0.0, 0.000625)"
1975/03/10/09:57:54.931295,93,163645074,903861000,map,-25877.5800781,-93253.7421875,1.49366784096,-0.000973015108597,0.000707846966705,0.824134716277,0.566392530078,"(0.002502264976501465, 4.76837158203125e-07, 0.0, 0.0, 0.0, 0.0, 4.76837158203125e-07, 0.0025, 0.0, 0.0, 0.0, 0.0, 0.0, 0.0, 0.0, 0.0, 0.0, 0.0, 0.0, 0.0, 0.0, 0.0, 0.0, 0.0, 0.0, 0.0, 0.0, 0.0, 0.0, 0.0, 0.0, 0.0, 0.0, 0.0, 0.0, 0.000625)"
1975/03/10/09:57:55.027817,94,163645075,3861000,map,-25877.8789062,-93252.96875,1.49179947376,-0.00105282551159,0.000812172153986,0.825196038617,0.564844860113,"(0.002500476837158203, -2.384185791015625e-06, 0.0, 0.0, 0.0, 0.0, -2.384185791015625e-06, 0.0025095367431640626, 0.0, 0.0, 0.0, 0.0, 0.0, 0.0, 0.0, 0.0, 0.0, 0.0, 0.0, 0.0, 0.0, 0.0, 0.0, 0.0, 0.0, 0.0, 0.0, 0.0, 0.0, 0.0, 0.0, 0.0, 0.0, 0.0, 0.0, 0.000625)"
1975/03/10/09:57:55.132385,95,163645075,103860000,map,-25878.1796875,-93252.1953125,1.48743033409,-0.00115632698087,0.000787442254543,0.82588598368,0.563835426443,"(0.0025009536743164063, 2.86102294921875e-06, 0.0, 0.0, 0.0, 0.0, 2.86102294921875e-06, 0.0025247955322265626, 0.0, 0.0, 0.0, 0.0, 0.0, 0.0, 0.0, 0.0, 0.0, 0.0, 0.0, 0.0, 0.0, 0.0, 0.0, 0.0, 0.0, 0.0, 0.0, 0.0, 0.0, 0.0, 0.0, 0.0, 0.0, 0.0, 0.0, 0.000625)"
1975/03/10/09:57:55.228841,96,163645075,203860000,map,-25878.4960938,-93251.3984375,1.48603534698,-0.00111591331636,0.000894875722058,0.826873564136,0.562385964755,"(0.002500476837158203, -1.430511474609375e-06, 0.0, 0.0, 0.0, 0.0, -1.430511474609375e-06, 0.0025152587890625, 0.0, 0.0, 0.0, 0.0, 0.0, 0.0, 0.0, 0.0, 0.0, 0.0, 0.0, 0.0, 0.0, 0.0, 0.0, 0.0, 0.0, 0.0, 0.0, 0.0, 0.0, 0.0, 0.0, 0.0, 0.0, 0.0, 0.0, 0.000625)"
1975/03/10/09:57:55.325330,97,163645075,302860000,map,-25878.8027344,-93250.6171875,1.48410105705,-0.00117930340252,0.000809780608721,0.827620458178,0.561286345475,"(0.00250154972076416, 3.337860107421875e-06, 0.0, 0.0, 0.0, 0.0, 3.337860107421875e-06, 0.0025152587890625, 0.0, 0.0, 0.0, 0.0, 0.0, 0.0, 0.0, 0.0, 0.0, 0.0, 0.0, 0.0, 0.0, 0.0, 0.0, 0.0, 0.0, 0.0, 0.0, 0.0, 0.0, 0.0, 0.0, 0.0, 0.0, 0.0, 0.0, 0.000625)"
1975/03/10/09:57:55.429866,98,163645075,404860000,map,-25879.1269531,-93249.796875,1.47934246063,-0.0011982500094,0.000968188860446,0.828360358272,0.560193438872,"(0.0025, -4.76837158203125e-07, 0.0, 0.0, 0.0, 0.0, -4.76837158203125e-07, 0.0025133514404296876, 0.0, 0.0, 0.0, 0.0, 0.0, 0.0, 0.0, 0.0, 0.0, 0.0, 0.0, 0.0, 0.0, 0.0, 0.0, 0.0, 0.0, 0.0, 0.0, 0.0, 0.0, 0.0, 0.0, 0.0, 0.0, 0.0, 0.0, 0.000625)"
1975/03/10/09:57:55.526356,99,163645075,503860000,map,-25879.4589844,-93249.0,1.47629201412,-0.00117657449504,0.000856905137261,0.829416414162,0.558628968149,"(0.0025083446502685547, 0.0, 0.0, 0.0, 0.0, 0.0, 0.0, 0.0025, 0.0, 0.0, 0.0, 0.0, 0.0, 0.0, 0.0, 0.0, 0.0, 0.0, 0.0, 0.0, 0.0, 0.0, 0.0, 0.0, 0.0, 0.0, 0.0, 0.0, 0.0, 0.0, 0.0, 0.0, 0.0, 0.0, 0.0, 0.000625)"
1975/03/10/09:57:55.630890,100,163645075,603860000,map,-25879.7910156,-93248.1875,1.47440648079,-0.00101924786285,0.000751922804113,0.830401535344,0.557163956231,"(0.0025009536743164063, -1.430511474609375e-06, 0.0, 0.0, 0.0, 0.0, -1.430511474609375e-06, 0.0025095367431640626, 0.0, 0.0, 0.0, 0.0, 0.0, 0.0, 0.0, 0.0, 0.0, 0.0, 0.0, 0.0, 0.0, 0.0, 0.0, 0.0, 0.0, 0.0, 0.0, 0.0, 0.0, 0.0, 0.0, 0.0, 0.0, 0.0, 0.0, 0.000625)"
1975/03/10/09:57:55.727380,101,163645075,702860000,map,-25880.1386719,-93247.34375,1.4728500843,-0.000770728479107,0.000490931203084,0.831379484445,0.555704306434,"(0.0025008344650268555, 1.9073486328125e-06, 0.0, 0.0, 0.0, 0.0, 1.9073486328125e-06, 0.0025095367431640626, 0.0, 0.0, 0.0, 0.0, 0.0, 0.0, 0.0, 0.0, 0.0, 0.0, 0.0, 0.0, 0.0, 0.0, 0.0, 0.0, 0.0, 0.0, 0.0, 0.0, 0.0, 0.0, 0.0, 0.0, 0.0, 0.0, 0.0, 0.000625)"
1975/03/10/09:57:55.823900,102,163645075,802860000,map,-25880.4902344,-93246.5078125,1.47054517269,-0.000344857550952,0.000357809630497,0.832396581442,0.554180255851,"(0.0025036954879760743, 0.0, 0.0, 0.0, 0.0, 0.0, 0.0, 0.0025, 0.0, 0.0, 0.0, 0.0, 0.0, 0.0, 0.0, 0.0, 0.0, 0.0, 0.0, 0.0, 0.0, 0.0, 0.0, 0.0, 0.0, 0.0, 0.0, 0.0, 0.0, 0.0, 0.0, 0.0, 0.0, 0.0, 0.0, 0.000625)"
1975/03/10/09:57:55.928449,103,163645075,902860000,map,-25880.8339844,-93245.6640625,1.47347617149,0.000140156514733,0.000162107925045,0.833435282632,0.55261706398,"(0.0025, 0.0, 0.0, 0.0, 0.0, 0.0, 0.0, 0.0025152587890625, 0.0, 0.0, 0.0, 0.0, 0.0, 0.0, 0.0, 0.0, 0.0, 0.0, 0.0, 0.0, 0.0, 0.0, 0.0, 0.0, 0.0, 0.0, 0.0, 0.0, 0.0, 0.0, 0.0, 0.0, 0.0, 0.0, 0.0, 0.000625)"
1975/03/10/09:57:56.032980,104,163645076,3860000,map,-25881.2050781,-93244.8046875,1.47228825092,8.49678549021e-05,0.000120661145888,0.834360095187,0.551219725069,"(0.0025023841857910157, -2.384185791015625e-06, 0.0, 0.0, 0.0, 0.0, -2.384185791015625e-06, 0.0025152587890625, 0.0, 0.0, 0.0, 0.0, 0.0, 0.0, 0.0, 0.0, 0.0, 0.0, 0.0, 0.0, 0.0, 0.0, 0.0, 0.0, 0.0, 0.0, 0.0, 0.0, 0.0, 0.0, 0.0, 0.0, 0.0, 0.0, 0.0, 0.000625)"
1975/03/10/09:57:56.129430,105,163645076,102859000,map,-25881.5644531,-93243.9609375,1.47227692604,-7.26487795786e-05,0.000201745575574,0.835227318206,0.549904782007,"(0.00250154972076416, 0.0, 0.0, 0.0, 0.0, 0.0, 0.0, 0.002511444091796875, 0.0, 0.0, 0.0, 0.0, 0.0, 0.0, 0.0, 0.0, 0.0, 0.0, 0.0, 0.0, 0.0, 0.0, 0.0, 0.0, 0.0, 0.0, 0.0, 0.0, 0.0, 0.0, 0.0, 0.0, 0.0, 0.0, 0.0, 0.000625)"
1975/03/10/09:57:56.233991,106,163645076,203859000,map,-25881.9433594,-93243.09375,1.46898925304,-0.000421195508779,0.00033117739581,0.83587232714,0.548923667384,"(0.0025056028366088868, 1.9073486328125e-06, 0.0, 0.0, 0.0, 0.0, 1.9073486328125e-06, 0.0025095367431640626, 0.0, 0.0, 0.0, 0.0, 0.0, 0.0, 0.0, 0.0, 0.0, 0.0, 0.0, 0.0, 0.0, 0.0, 0.0, 0.0, 0.0, 0.0, 0.0, 0.0, 0.0, 0.0, 0.0, 0.0, 0.0, 0.0, 0.0, 0.000625)"
1975/03/10/09:57:56.330509,107,163645076,303859000,map,-25882.3242188,-93242.2109375,1.4681648016,-0.000763466854309,0.000643539843705,0.836395734455,0.548125084852,"(0.0025, 0.0, 0.0, 0.0, 0.0, 0.0, 0.0, 0.0025, 0.0, 0.0, 0.0, 0.0, 0.0, 0.0, 0.0, 0.0, 0.0, 0.0, 0.0, 0.0, 0.0, 0.0, 0.0, 0.0, 0.0, 0.0, 0.0, 0.0, 0.0, 0.0, 0.0, 0.0, 0.0, 0.0, 0.0, 0.000625)"
1975/03/10/09:57:56.427006,108,163645076,403859000,map,-25882.703125,-93241.34375,1.46524035931,-0.00101528179606,0.000768109664141,0.836830788572,0.547460147613,"(0.0025025033950805665, -2.384185791015625e-06, 0.0, 0.0, 0.0, 0.0, -2.384185791015625e-06, 0.0025152587890625, 0.0, 0.0, 0.0, 0.0, 0.0, 0.0, 0.0, 0.0, 0.0, 0.0, 0.0, 0.0, 0.0, 0.0, 0.0, 0.0, 0.0, 0.0, 0.0, 0.0, 0.0, 0.0, 0.0, 0.0, 0.0, 0.0, 0.0, 0.000625)"
1975/03/10/09:57:56.531500,109,163645076,503859000,map,-25883.0976562,-93240.4453125,1.46390867233,-0.00124242602269,0.000929937612065,0.83721814785,0.54686686646,"(0.0025009536743164063, 9.5367431640625e-07, 0.0, 0.0, 0.0, 0.0, 9.5367431640625e-07, 0.0025152587890625, 0.0, 0.0, 0.0, 0.0, 0.0, 0.0, 0.0, 0.0, 0.0, 0.0, 0.0, 0.0, 0.0, 0.0, 0.0, 0.0, 0.0, 0.0, 0.0, 0.0, 0.0, 0.0, 0.0, 0.0, 0.0, 0.0, 0.0, 0.000625)"
1975/03/10/09:57:56.636025,110,163645076,603859000,map,-25883.4882812,-93239.5390625,1.46289491653,-0.00152967081164,0.00119827280342,0.837558765762,0.546343831552,"(0.00250154972076416, 0.0, 0.0, 0.0, 0.0, 0.0, 0.0, 0.0025247955322265626, 0.0, 0.0, 0.0, 0.0, 0.0, 0.0, 0.0, 0.0, 0.0, 0.0, 0.0, 0.0, 0.0, 0.0, 0.0, 0.0, 0.0, 0.0, 0.0, 0.0, 0.0, 0.0, 0.0, 0.0, 0.0, 0.0, 0.0, 0.000625)"
1975/03/10/09:57:56.732511,111,163645076,703859000,map,-25883.8925781,-93238.625,1.45522916317,-0.00180733354022,0.001194458393,0.837842424314,0.545907806971,"(0.0025, 0.0, 0.0, 0.0, 0.0, 0.0, 0.0, 0.002511444091796875, 0.0, 0.0, 0.0, 0.0, 0.0, 0.0, 0.0, 0.0, 0.0, 0.0, 0.0, 0.0, 0.0, 0.0, 0.0, 0.0, 0.0, 0.0, 0.0, 0.0, 0.0, 0.0, 0.0, 0.0, 0.0, 0.0, 0.0, 0.000625)"
1975/03/10/09:57:56.837070,112,163645076,803859000,map,-25884.2910156,-93237.71875,1.4507791996,-0.00140504084558,0.001009799036,0.838037284167,0.54561015725,"(0.0025023841857910157, -4.76837158203125e-07, 0.0, 0.0, 0.0, 0.0, -4.76837158203125e-07, 0.0025, 0.0, 0.0, 0.0, 0.0, 0.0, 0.0, 0.0, 0.0, 0.0, 0.0, 0.0, 0.0, 0.0, 0.0, 0.0, 0.0, 0.0, 0.0, 0.0, 0.0, 0.0, 0.0, 0.0, 0.0, 0.0, 0.0, 0.0, 0.000625)"
1975/03/10/09:57:56.933583,113,163645076,904859000,map,-25884.7070312,-93236.796875,1.44568312168,-0.000792041558649,0.000645987410571,0.837986755007,0.545689592351,"(0.0025036954879760743, 2.86102294921875e-06, 0.0, 0.0, 0.0, 0.0, 2.86102294921875e-06, 0.002511444091796875, 0.0, 0.0, 0.0, 0.0, 0.0, 0.0, 0.0, 0.0, 0.0, 0.0, 0.0, 0.0, 0.0, 0.0, 0.0, 0.0, 0.0, 0.0, 0.0, 0.0, 0.0, 0.0, 0.0, 0.0, 0.0, 0.0, 0.0, 0.000625)"
1975/03/10/09:57:57.030081,114,163645077,3859000,map,-25885.1191406,-93235.859375,1.44511461258,-0.000358925165156,0.000253119824561,0.837864026288,0.545878810905,"(0.0025007152557373047, -1.430511474609375e-06, 0.0, 0.0, 0.0, 0.0, -1.430511474609375e-06, 0.0025152587890625, 0.0, 0.0, 0.0, 0.0, 0.0, 0.0, 0.0, 0.0, 0.0, 0.0, 0.0, 0.0, 0.0, 0.0, 0.0, 0.0, 0.0, 0.0, 0.0, 0.0, 0.0, 0.0, 0.0, 0.0, 0.0, 0.0, 0.0, 0.000625)"
1975/03/10/09:57:57.134566,115,163645077,103859000,map,-25885.5410156,-93234.8984375,1.44460833073,-0.000392327391642,0.000261100071809,0.837529499246,0.546391941349,"(0.002500596046447754, 0.0, 0.0, 0.0, 0.0, 0.0, 0.0, 0.0025, 0.0, 0.0, 0.0, 0.0, 0.0, 0.0, 0.0, 0.0, 0.0, 0.0, 0.0, 0.0, 0.0, 0.0, 0.0, 0.0, 0.0, 0.0, 0.0, 0.0, 0.0, 0.0, 0.0, 0.0, 0.0, 0.0, 0.0, 0.000625)"
1975/03/10/09:57:57.239478,116,163645077,204858000,map,-25885.9550781,-93233.9296875,1.44467484951,-0.000486364618661,0.000418410104778,0.837248925513,0.546821543942,"(0.0025008344650268555, 4.76837158203125e-07, 0.0, 0.0, 0.0, 0.0, 4.76837158203125e-07, 0.0025152587890625, 0.0, 0.0, 0.0, 0.0, 0.0, 0.0, 0.0, 0.0, 0.0, 0.0, 0.0, 0.0, 0.0, 0.0, 0.0, 0.0, 0.0, 0.0, 0.0, 0.0, 0.0, 0.0, 0.0, 0.0, 0.0, 0.0, 0.0, 0.000625)"
1975/03/10/09:57:57.327864,117,163645077,303858000,map,-25886.3808594,-93232.9765625,1.44591116905,-0.000485162881275,0.000498301069831,0.837048808338,0.547127767458,"(0.0025008344650268555, -4.76837158203125e-07, 0.0, 0.0, 0.0, 0.0, -4.76837158203125e-07, 0.0025152587890625, 0.0, 0.0, 0.0, 0.0, 0.0, 0.0, 0.0, 0.0, 0.0, 0.0, 0.0, 0.0, 0.0, 0.0, 0.0, 0.0, 0.0, 0.0, 0.0, 0.0, 0.0, 0.0, 0.0, 0.0, 0.0, 0.0, 0.0, 0.000625)"
1975/03/10/09:57:57.432357,118,163645077,405858000,map,-25886.8027344,-93231.9921875,1.44428145885,-0.000406385555165,0.000349477901978,0.836808616408,0.547495238216,"(0.002500476837158203, 1.9073486328125e-06, 0.0, 0.0, 0.0, 0.0, 1.9073486328125e-06, 0.0025152587890625, 0.0, 0.0, 0.0, 0.0, 0.0, 0.0, 0.0, 0.0, 0.0, 0.0, 0.0, 0.0, 0.0, 0.0, 0.0, 0.0, 0.0, 0.0, 0.0, 0.0, 0.0, 0.0, 0.0, 0.0, 0.0, 0.0, 0.0, 0.000625)"
1975/03/10/09:57:57.528824,119,163645077,503858000,map,-25887.234375,-93231.0234375,1.44213831425,-0.00038657771277,0.000221916189592,0.83667542914,0.547698851328,"(0.0025030994415283204, 0.0, 0.0, 0.0, 0.0, 0.0, 0.0, 0.0025095367431640626, 0.0, 0.0, 0.0, 0.0, 0.0, 0.0, 0.0, 0.0, 0.0, 0.0, 0.0, 0.0, 0.0, 0.0, 0.0, 0.0, 0.0, 0.0, 0.0, 0.0, 0.0, 0.0, 0.0, 0.0, 0.0, 0.0, 0.0, 0.000625)"
1975/03/10/09:57:57.633361,120,163645077,603858000,map,-25887.6738281,-93230.0234375,1.44161295891,-0.000272028693094,0.000296861980747,0.836396052227,0.54812541108,"(0.0025009536743164063, 4.76837158203125e-07, 0.0, 0.0, 0.0, 0.0, 4.76837158203125e-07, 0.0025, 0.0, 0.0, 0.0, 0.0, 0.0, 0.0, 0.0, 0.0, 0.0, 0.0, 0.0, 0.0, 0.0, 0.0, 0.0, 0.0, 0.0, 0.0, 0.0, 0.0, 0.0, 0.0, 0.0, 0.0, 0.0, 0.0, 0.0, 0.000625)"
1975/03/10/09:57:57.729835,121,163645077,703858000,map,-25888.1152344,-93229.03125,1.44213211536,-0.00029944824177,0.000199729682467,0.836199464229,0.548425275444,"(0.002500476837158203, 9.5367431640625e-07, 0.0, 0.0, 0.0, 0.0, 9.5367431640625e-07, 0.0025152587890625, 0.0, 0.0, 0.0, 0.0, 0.0, 0.0, 0.0, 0.0, 0.0, 0.0, 0.0, 0.0, 0.0, 0.0, 0.0, 0.0, 0.0, 0.0, 0.0, 0.0, 0.0, 0.0, 0.0, 0.0, 0.0, 0.0, 0.0, 0.000625)"
1975/03/10/09:57:57.834342,122,163645077,803858000,map,-25888.5507812,-93227.9921875,1.44026327133,-0.000573385446514,0.000440833574625,0.835783607163,0.549058458588,"(0.0025023841857910157, 4.291534423828125e-06, 0.0, 0.0, 0.0, 0.0, 4.291534423828125e-06, 0.00250762939453125, 0.0, 0.0, 0.0, 0.0, 0.0, 0.0, 0.0, 0.0, 0.0, 0.0, 0.0, 0.0, 0.0, 0.0, 0.0, 0.0, 0.0, 0.0, 0.0, 0.0, 0.0, 0.0, 0.0, 0.0, 0.0, 0.0, 0.0, 0.000625)"
1975/03/10/09:57:57.930838,123,163645077,903858000,map,-25889.0019531,-93226.984375,1.4360537529,-0.00101512928382,0.000687371155482,0.835518325588,0.549461142228,"(0.0025051259994506836, -4.76837158203125e-07, 0.0, 0.0, 0.0, 0.0, -4.76837158203125e-07, 0.0025, 0.0, 0.0, 0.0, 0.0, 0.0, 0.0, 0.0, 0.0, 0.0, 0.0, 0.0, 0.0, 0.0, 0.0, 0.0, 0.0, 0.0, 0.0, 0.0, 0.0, 0.0, 0.0, 0.0, 0.0, 0.0, 0.0, 0.0, 0.000625)"
1975/03/10/09:57:58.027337,124,163645078,4858000,map,-25889.4550781,-93225.9375,1.43174219131,-0.00135346820854,0.000845060196229,0.83499628131,0.550253168544,"(0.002503933906555176, 0.0, 0.0, 0.0, 0.0, 0.0, 0.0, 0.0025, 0.0, 0.0, 0.0, 0.0, 0.0, 0.0, 0.0, 0.0, 0.0, 0.0, 0.0, 0.0, 0.0, 0.0, 0.0, 0.0, 0.0, 0.0, 0.0, 0.0, 0.0, 0.0, 0.0, 0.0, 0.0, 0.0, 0.0, 0.000625)"
1975/03/10/09:57:58.131905,125,163645078,104858000,map,-25889.9023438,-93224.875,1.42836022377,-0.00149418816641,0.000899862300456,0.834507845035,0.550993263075,"(0.002502145767211914, 1.430511474609375e-06, 0.0, 0.0, 0.0, 0.0, 1.430511474609375e-06, 0.0025152587890625, 0.0, 0.0, 0.0, 0.0, 0.0, 0.0, 0.0, 0.0, 0.0, 0.0, 0.0, 0.0, 0.0, 0.0, 0.0, 0.0, 0.0, 0.0, 0.0, 0.0, 0.0, 0.0, 0.0, 0.0, 0.0, 0.0, 0.0, 0.000625)"
1975/03/10/09:57:58.228390,126,163645078,203857000,map,-25890.3457031,-93223.8515625,1.42508029938,-0.00142741533926,0.000806724853328,0.834100392954,0.551610160584,"(0.00250154972076416, 0.0, 0.0, 0.0, 0.0, 0.0, 0.0, 0.0025095367431640626, 0.0, 0.0, 0.0, 0.0, 0.0, 0.0, 0.0, 0.0, 0.0, 0.0, 0.0, 0.0, 0.0, 0.0, 0.0, 0.0, 0.0, 0.0, 0.0, 0.0, 0.0, 0.0, 0.0, 0.0, 0.0, 0.0, 0.0, 0.000625)"
1975/03/10/09:57:58.332918,127,163645078,304857000,map,-25890.8027344,-93222.765625,1.42094790936,-0.00130830993536,0.000681644617898,0.833519158183,0.552488568919,"(0.0025023841857910157, -1.9073486328125e-06, 0.0, 0.0, 0.0, 0.0, -1.9073486328125e-06, 0.002511444091796875, 0.0, 0.0, 0.0, 0.0, 0.0, 0.0, 0.0, 0.0, 0.0, 0.0, 0.0, 0.0, 0.0, 0.0, 0.0, 0.0, 0.0, 0.0, 0.0, 0.0, 0.0, 0.0, 0.0, 0.0, 0.0, 0.0, 0.0, 0.000625)"
1975/03/10/09:57:58.429371,128,163645078,403857000,map,-25891.2539062,-93221.6953125,1.41658723354,-0.00140734384389,0.000767102186437,0.833035812859,0.553216636201,"(0.0025008344650268555, -1.430511474609375e-06, 0.0, 0.0, 0.0, 0.0, -1.430511474609375e-06, 0.002511444091796875, 0.0, 0.0, 0.0, 0.0, 0.0, 0.0, 0.0, 0.0, 0.0, 0.0, 0.0, 0.0, 0.0, 0.0, 0.0, 0.0, 0.0, 0.0, 0.0, 0.0, 0.0, 0.0, 0.0, 0.0, 0.0, 0.0, 0.0, 0.000625)"
1975/03/10/09:57:58.533879,129,163645078,504857000,map,-25891.7128906,-93220.6015625,1.41013979912,-0.00125771537998,0.000632692119051,0.832596240858,0.553878644409,"(0.0025, 0.0, 0.0, 0.0, 0.0, 0.0, 0.0, 0.0025152587890625, 0.0, 0.0, 0.0, 0.0, 0.0, 0.0, 0.0, 0.0, 0.0, 0.0, 0.0, 0.0, 0.0, 0.0, 0.0, 0.0, 0.0, 0.0, 0.0, 0.0, 0.0, 0.0, 0.0, 0.0, 0.0, 0.0, 0.0, 0.000625)"
1975/03/10/09:57:58.630364,130,163645078,603857000,map,-25892.1757812,-93219.484375,1.41157817841,-0.000262335584039,-9.45017960146e-05,0.831917946753,0.554898638233,"(0.0025, 0.0, 0.0, 0.0, 0.0, 0.0, 0.0, 0.0025152587890625, 0.0, 0.0, 0.0, 0.0, 0.0, 0.0, 0.0, 0.0, 0.0, 0.0, 0.0, 0.0, 0.0, 0.0, 0.0, 0.0, 0.0, 0.0, 0.0, 0.0, 0.0, 0.0, 0.0, 0.0, 0.0, 0.0, 0.0, 0.000625)"
1975/03/10/09:57:58.726883,131,163645078,704857000,map,-25892.6308594,-93218.3828125,1.40826559067,-0.000857103607979,0.000189073297599,0.831428957278,0.555630413035,"(0.0025009536743164063, 4.76837158203125e-07, 0.0, 0.0, 0.0, 0.0, 4.76837158203125e-07, 0.0025, 0.0, 0.0, 0.0, 0.0, 0.0, 0.0, 0.0, 0.0, 0.0, 0.0, 0.0, 0.0, 0.0, 0.0, 0.0, 0.0, 0.0, 0.0, 0.0, 0.0, 0.0, 0.0, 0.0, 0.0, 0.0, 0.0, 0.0, 0.000625)"
1975/03/10/09:57:58.847504,132,163645078,804857000,map,-25893.0800781,-93217.2890625,1.40232372284,-0.00373087971254,0.00243344706454,0.830787044367,0.556572592075,"(0.0025008344650268555, -1.9073486328125e-06, 0.0, 0.0, 0.0, 0.0, -1.9073486328125e-06, 0.0025095367431640626, 0.0, 0.0, 0.0, 0.0, 0.0, 0.0, 0.0, 0.0, 0.0, 0.0, 0.0, 0.0, 0.0, 0.0, 0.0, 0.0, 0.0, 0.0, 0.0, 0.0, 0.0, 0.0, 0.0, 0.0, 0.0, 0.0, 0.0, 0.000625)"
1975/03/10/09:57:58.927934,133,163645078,903857000,map,-25893.5527344,-93216.1484375,1.38619327545,-0.00569168275257,0.00360777726088,0.830376770195,0.557161569265,"(0.0025008344650268555, -1.9073486328125e-06, 0.0, 0.0, 0.0, 0.0, -1.9073486328125e-06, 0.0025095367431640626, 0.0, 0.0, 0.0, 0.0, 0.0, 0.0, 0.0, 0.0, 0.0, 0.0, 0.0, 0.0, 0.0, 0.0, 0.0, 0.0, 0.0, 0.0, 0.0, 0.0, 0.0, 0.0, 0.0, 0.0, 0.0, 0.0, 0.0, 0.000625)"
1975/03/10/09:57:59.024433,134,163645079,3857000,map,-25894.0175781,-93215.015625,1.37201750278,-0.00336325582157,0.0021179327366,0.830074031242,0.557638966257,"(0.0025, 0.0, 0.0, 0.0, 0.0, 0.0, 0.0, 0.0025152587890625, 0.0, 0.0, 0.0, 0.0, 0.0, 0.0, 0.0, 0.0, 0.0, 0.0, 0.0, 0.0, 0.0, 0.0, 0.0, 0.0, 0.0, 0.0, 0.0, 0.0, 0.0, 0.0, 0.0, 0.0, 0.0, 0.0, 0.0, 0.000625)"
1975/03/10/09:57:59.137026,135,163645079,104857000,map,-25894.4765625,-93213.875,1.3671374321,-6.14190770984e-05,-0.000297624605337,0.829544163565,0.558440981162,"(0.0025009536743164063, -1.430511474609375e-06, 0.0, 0.0, 0.0, 0.0, -1.430511474609375e-06, 0.0025095367431640626, 0.0, 0.0, 0.0, 0.0, 0.0, 0.0, 0.0, 0.0, 0.0, 0.0, 0.0, 0.0, 0.0, 0.0, 0.0, 0.0, 0.0, 0.0, 0.0, 0.0, 0.0, 0.0, 0.0, 0.0, 0.0, 0.0, 0.0, 0.000625)"
1975/03/10/09:57:59.225499,136,163645079,204857000,map,-25894.9453125,-93212.71875,1.36538636684,0.000306151062554,-0.000425157336455,0.828869968968,0.559441103839,"(0.0025007152557373047, -1.430511474609375e-06, 0.0, 0.0, 0.0, 0.0, -1.430511474609375e-06, 0.0025133514404296876, 0.0, 0.0, 0.0, 0.0, 0.0, 0.0, 0.0, 0.0, 0.0, 0.0, 0.0, 0.0, 0.0, 0.0, 0.0, 0.0, 0.0, 0.0, 0.0, 0.0, 0.0, 0.0, 0.0, 0.0, 0.0, 0.0, 0.0, 0.000625)"
1975/03/10/09:57:59.330204,137,163645079,304856000,map,-25895.40625,-93211.578125,1.36857557297,-0.00174688493723,0.000805467856989,0.82813166082,0.560530346617,"(0.0025009536743164063, 1.430511474609375e-06, 0.0, 0.0, 0.0, 0.0, 1.430511474609375e-06, 0.002511444091796875, 0.0, 0.0, 0.0, 0.0, 0.0, 0.0, 0.0, 0.0, 0.0, 0.0, 0.0, 0.0, 0.0, 0.0, 0.0, 0.0, 0.0, 0.0, 0.0, 0.0, 0.0, 0.0, 0.0, 0.0, 0.0, 0.0, 0.0, 0.000625)"
1975/03/10/09:57:59.434741,138,163645079,404856000,map,-25895.8789062,-93210.3828125,1.36066377163,-0.00357332816745,0.00220021520669,0.827633268257,0.561253477799,"(0.0025009536743164063, -1.9073486328125e-06, 0.0, 0.0, 0.0, 0.0, -1.9073486328125e-06, 0.002511444091796875, 0.0, 0.0, 0.0, 0.0, 0.0, 0.0, 0.0, 0.0, 0.0, 0.0, 0.0, 0.0, 0.0, 0.0, 0.0, 0.0, 0.0, 0.0, 0.0, 0.0, 0.0, 0.0, 0.0, 0.0, 0.0, 0.0, 0.0, 0.000625)"
1975/03/10/09:57:59.531254,139,163645079,503856000,map,-25896.359375,-93209.203125,1.34340417385,-0.00413694985576,0.00272914326072,0.827239738433,0.561827237419,"(0.002500596046447754, 1.430511474609375e-06, 0.0, 0.0, 0.0, 0.0, 1.430511474609375e-06, 0.0025152587890625, 0.0, 0.0, 0.0, 0.0, 0.0, 0.0, 0.0, 0.0, 0.0, 0.0, 0.0, 0.0, 0.0, 0.0, 0.0, 0.0, 0.0, 0.0, 0.0, 0.0, 0.0, 0.0, 0.0, 0.0, 0.0, 0.0, 0.0, 0.000625)"
1975/03/10/09:57:59.627733,140,163645079,602856000,map,-25896.828125,-93208.015625,1.3301910162,-0.00430295519291,0.00280262458415,0.826946839803,0.562256647823,"(0.0025007152557373047, 1.430511474609375e-06, 0.0, 0.0, 0.0, 0.0, 1.430511474609375e-06, 0.0025152587890625, 0.0, 0.0, 0.0, 0.0, 0.0, 0.0, 0.0, 0.0, 0.0, 0.0, 0.0, 0.0, 0.0, 0.0, 0.0, 0.0, 0.0, 0.0, 0.0, 0.0, 0.0, 0.0, 0.0, 0.0, 0.0, 0.0, 0.0, 0.000625)"
1975/03/10/09:57:59.724227,141,163645079,702856000,map,-25897.3085938,-93206.796875,1.31876575947,-0.00442605432545,0.0028356378635,0.826610444825,0.562750005795,"(0.0025008344650268555, -4.76837158203125e-07, 0.0, 0.0, 0.0, 0.0, -4.76837158203125e-07, 0.0025152587890625, 0.0, 0.0, 0.0, 0.0, 0.0, 0.0, 0.0, 0.0, 0.0, 0.0, 0.0, 0.0, 0.0, 0.0, 0.0, 0.0, 0.0, 0.0, 0.0, 0.0, 0.0, 0.0, 0.0, 0.0, 0.0, 0.0, 0.0, 0.000625)"
1975/03/10/09:57:59.828816,142,163645079,801856000,map,-25897.7949219,-93205.5859375,1.30453646183,-0.00495164660974,0.00343434416525,0.826199631674,0.563345287244,"(0.002500596046447754, 9.5367431640625e-07, 0.0, 0.0, 0.0, 0.0, 9.5367431640625e-07, 0.002511444091796875, 0.0, 0.0, 0.0, 0.0, 0.0, 0.0, 0.0, 0.0, 0.0, 0.0, 0.0, 0.0, 0.0, 0.0, 0.0, 0.0, 0.0, 0.0, 0.0, 0.0, 0.0, 0.0, 0.0, 0.0, 0.0, 0.0, 0.0, 0.000625)"
1975/03/10/09:57:59.925380,143,163645079,901856000,map,-25898.2695312,-93204.359375,1.28658246994,-0.0057833327835,0.00387434939323,0.826072610732,0.563520677714,"(0.002502145767211914, -4.76837158203125e-07, 0.0, 0.0, 0.0, 0.0, -4.76837158203125e-07, 0.002511444091796875, 0.0, 0.0, 0.0, 0.0, 0.0, 0.0, 0.0, 0.0, 0.0, 0.0, 0.0, 0.0, 0.0, 0.0, 0.0, 0.0, 0.0, 0.0, 0.0, 0.0, 0.0, 0.0, 0.0, 0.0, 0.0, 0.0, 0.0, 0.000625)"
1975/03/10/09:58:00.029922,144,163645080,1856000,map,-25898.7617188,-93203.125,1.262190938,-0.00600839722017,0.00360411991061,0.826082279169,0.563505928954,"(0.0025009536743164063, -4.76837158203125e-07, 0.0, 0.0, 0.0, 0.0, -4.76837158203125e-07, 0.0025152587890625, 0.0, 0.0, 0.0, 0.0, 0.0, 0.0, 0.0, 0.0, 0.0, 0.0, 0.0, 0.0, 0.0, 0.0, 0.0, 0.0, 0.0, 0.0, 0.0, 0.0, 0.0, 0.0, 0.0, 0.0, 0.0, 0.0, 0.0, 0.000625)"
1975/03/10/09:58:00.126386,145,163645080,99856000,map,-25899.2441406,-93201.8828125,1.24670684338,-0.00600690219202,0.00362939888682,0.826038632281,0.563569780173,"(0.0025020265579223633, 0.0, 0.0, 0.0, 0.0, 0.0, 0.0, 0.0025, 0.0, 0.0, 0.0, 0.0, 0.0, 0.0, 0.0, 0.0, 0.0, 0.0, 0.0, 0.0, 0.0, 0.0, 0.0, 0.0, 0.0, 0.0, 0.0, 0.0, 0.0, 0.0, 0.0, 0.0, 0.0, 0.0, 0.0, 0.000625)"
1975/03/10/09:58:00.222876,146,163645080,199856000,map,-25899.7363281,-93200.6015625,1.2229360342,-0.00672527262259,0.00414150296956,0.826101436133,0.563466057109,"(0.002500596046447754, 4.76837158203125e-07, 0.0, 0.0, 0.0, 0.0, 4.76837158203125e-07, 0.0025095367431640626, 0.0, 0.0, 0.0, 0.0, 0.0, 0.0, 0.0, 0.0, 0.0, 0.0, 0.0, 0.0, 0.0, 0.0, 0.0, 0.0, 0.0, 0.0, 0.0, 0.0, 0.0, 0.0, 0.0, 0.0, 0.0, 0.0, 0.0, 0.000625)"
1975/03/10/09:58:00.319346,147,163645080,299855000,map,-25900.2285156,-93199.375,1.19716000557,-0.00810695019108,0.00501251571238,0.826093848142,0.563451968074,"(0.002503933906555176, 6.198883056640625e-06, 0.0, 0.0, 0.0, 0.0, 6.198883056640625e-06, 0.0025133514404296876, 0.0, 0.0, 0.0, 0.0, 0.0, 0.0, 0.0, 0.0, 0.0, 0.0, 0.0, 0.0, 0.0, 0.0, 0.0, 0.0, 0.0, 0.0, 0.0, 0.0, 0.0, 0.0, 0.0, 0.0, 0.0, 0.0, 0.0, 0.000625)"
1975/03/10/09:58:00.423881,148,163645080,399855000,map,-25900.7285156,-93198.09375,1.16531634331,-0.00963235463478,0.00592086973047,0.825903925121,0.563697513782,"(0.0025009536743164063, -4.76837158203125e-07, 0.0, 0.0, 0.0, 0.0, -4.76837158203125e-07, 0.0025133514404296876, 0.0, 0.0, 0.0, 0.0, 0.0, 0.0, 0.0, 0.0, 0.0, 0.0, 0.0, 0.0, 0.0, 0.0, 0.0, 0.0, 0.0, 0.0, 0.0, 0.0, 0.0, 0.0, 0.0, 0.0, 0.0, 0.0, 0.0, 0.000625)"
1975/03/10/09:58:00.528435,149,163645080,505855000,map,-25901.2324219,-93196.8046875,1.13162279129,-0.0103776086853,0.00657880994568,0.825782883778,0.563854249621,"(0.002500596046447754, 4.76837158203125e-07, 0.0, 0.0, 0.0, 0.0, 4.76837158203125e-07, 0.0025095367431640626, 0.0, 0.0, 0.0, 0.0, 0.0, 0.0, 0.0, 0.0, 0.0, 0.0, 0.0, 0.0, 0.0, 0.0, 0.0, 0.0, 0.0, 0.0, 0.0, 0.0, 0.0, 0.0, 0.0, 0.0, 0.0, 0.0, 0.0, 0.000625)"
1975/03/10/09:58:00.624925,150,163645080,605855000,map,-25901.7363281,-93195.5,1.10141265392,-0.0100529686186,0.00672582483583,0.825804299086,0.563827068459,"(0.002500476837158203, 1.430511474609375e-06, 0.0, 0.0, 0.0, 0.0, 1.430511474609375e-06, 0.0025152587890625, 0.0, 0.0, 0.0, 0.0, 0.0, 0.0, 0.0, 0.0, 0.0, 0.0, 0.0, 0.0, 0.0, 0.0, 0.0, 0.0, 0.0, 0.0, 0.0, 0.0, 0.0, 0.0, 0.0, 0.0, 0.0, 0.0, 0.0, 0.000625)"
1975/03/10/09:58:00.729483,151,163645080,707855000,map,-25902.2480469,-93194.234375,1.05461370945,-0.00981957081082,0.00659012481643,0.825953398322,0.563614370594,"(0.002502145767211914, -4.291534423828125e-06, 0.0, 0.0, 0.0, 0.0, -4.291534423828125e-06, 0.0025152587890625, 0.0, 0.0, 0.0, 0.0, 0.0, 0.0, 0.0, 0.0, 0.0, 0.0, 0.0, 0.0, 0.0, 0.0, 0.0, 0.0, 0.0, 0.0, 0.0, 0.0, 0.0, 0.0, 0.0, 0.0, 0.0, 0.0, 0.0, 0.000625)"
1975/03/10/09:58:00.826005,152,163645080,806855000,map,-25902.7597656,-93192.9296875,1.01808989048,-0.0103397542906,0.00736885220046,0.826130773854,0.563335262148,"(0.0025023841857910157, -2.384185791015625e-06, 0.0, 0.0, 0.0, 0.0, -2.384185791015625e-06, 0.0025152587890625, 0.0, 0.0, 0.0, 0.0, 0.0, 0.0, 0.0, 0.0, 0.0, 0.0, 0.0, 0.0, 0.0, 0.0, 0.0, 0.0, 0.0, 0.0, 0.0, 0.0, 0.0, 0.0, 0.0, 0.0, 0.0, 0.0, 0.0, 0.000625)"
1975/03/10/09:58:00.938575,153,163645080,906855000,map,-25903.2734375,-93191.609375,0.976058065891,-0.0117893592073,0.00827986254793,0.826524480134,0.562716409327,"(0.0025007152557373047, 1.430511474609375e-06, 0.0, 0.0, 0.0, 0.0, 1.430511474609375e-06, 0.0025152587890625, 0.0, 0.0, 0.0, 0.0, 0.0, 0.0, 0.0, 0.0, 0.0, 0.0, 0.0, 0.0, 0.0, 0.0, 0.0, 0.0, 0.0, 0.0, 0.0, 0.0, 0.0, 0.0, 0.0, 0.0, 0.0, 0.0, 0.0, 0.000625)"
1975/03/10/09:58:01.027044,154,163645081,5855000,map,-25903.7910156,-93190.28125,0.937484562397,-0.0125017940197,0.00871748208702,0.826888800803,0.562158812257,"(0.0025009536743164063, -4.76837158203125e-07, 0.0, 0.0, 0.0, 0.0, -4.76837158203125e-07, 0.0025152587890625, 0.0, 0.0, 0.0, 0.0, 0.0, 0.0, 0.0, 0.0, 0.0, 0.0, 0.0, 0.0, 0.0, 0.0, 0.0, 0.0, 0.0, 0.0, 0.0, 0.0, 0.0, 0.0, 0.0, 0.0, 0.0, 0.0, 0.0, 0.000625)"
1975/03/10/09:58:01.123546,155,163645081,105855000,map,-25904.3242188,-93188.9453125,0.895978391171,-0.0129402406566,0.00876668919083,0.827095642804,0.561843846999,"(0.0025023841857910157, -3.337860107421875e-06, 0.0, 0.0, 0.0, 0.0, -3.337860107421875e-06, 0.0025152587890625, 0.0, 0.0, 0.0, 0.0, 0.0, 0.0, 0.0, 0.0, 0.0, 0.0, 0.0, 0.0, 0.0, 0.0, 0.0, 0.0, 0.0, 0.0, 0.0, 0.0, 0.0, 0.0, 0.0, 0.0, 0.0, 0.0, 0.0, 0.000625)"
1975/03/10/09:58:01.228120,156,163645081,205855000,map,-25904.8554688,-93187.6015625,0.853435993195,-0.013839793456,0.00892936164822,0.827493959356,0.561232914611,"(0.0025009536743164063, 1.9073486328125e-06, 0.0, 0.0, 0.0, 0.0, 1.9073486328125e-06, 0.0025095367431640626, 0.0, 0.0, 0.0, 0.0, 0.0, 0.0, 0.0, 0.0, 0.0, 0.0, 0.0, 0.0, 0.0, 0.0, 0.0, 0.0, 0.0, 0.0, 0.0, 0.0, 0.0, 0.0, 0.0, 0.0, 0.0, 0.0, 0.0, 0.000625)"
1975/03/10/09:58:01.332647,157,163645081,307855000,map,-25905.390625,-93186.234375,0.809208810329,-0.0147632064856,0.00936147011695,0.828013939864,0.560434935023,"(0.0025009536743164063, 2.384185791015625e-06, 0.0, 0.0, 0.0, 0.0, 2.384185791015625e-06, 0.0025152587890625, 0.0, 0.0, 0.0, 0.0, 0.0, 0.0, 0.0, 0.0, 0.0, 0.0, 0.0, 0.0, 0.0, 0.0, 0.0, 0.0, 0.0, 0.0, 0.0, 0.0, 0.0, 0.0, 0.0, 0.0, 0.0, 0.0, 0.0, 0.000625)"
1975/03/10/09:58:01.429168,158,163645081,405854000,map,-25905.9492188,-93184.84375,0.75048148632,-0.0155660425141,0.00996624672201,0.828473503449,0.559723159127,"(0.0025, 0.0, 0.0, 0.0, 0.0, 0.0, 0.0, 0.0025, 0.0, 0.0, 0.0, 0.0, 0.0, 0.0, 0.0, 0.0, 0.0, 0.0, 0.0, 0.0, 0.0, 0.0, 0.0, 0.0, 0.0, 0.0, 0.0, 0.0, 0.0, 0.0, 0.0, 0.0, 0.0, 0.0, 0.0, 0.000625)"
1975/03/10/09:58:01.533709,159,163645081,506854000,map,-25906.5,-93183.46875,0.700501918793,-0.0156994243818,0.00991956855506,0.828887235153,0.559107350938,"(0.002500476837158203, -9.5367431640625e-07, 0.0, 0.0, 0.0, 0.0, -9.5367431640625e-07, 0.00250762939453125, 0.0, 0.0, 0.0, 0.0, 0.0, 0.0, 0.0, 0.0, 0.0, 0.0, 0.0, 0.0, 0.0, 0.0, 0.0, 0.0, 0.0, 0.0, 0.0, 0.0, 0.0, 0.0, 0.0, 0.0, 0.0, 0.0, 0.0, 0.000625)"
1975/03/10/09:58:01.630189,160,163645081,605854000,map,-25907.0527344,-93182.1015625,0.641982972622,-0.0147726815739,0.00988426920193,0.829434074976,0.558321793251,"(0.0025052452087402344, -4.76837158203125e-06, 0.0, 0.0, 0.0, 0.0, -4.76837158203125e-06, 0.0025152587890625, 0.0, 0.0, 0.0, 0.0, 0.0, 0.0, 0.0, 0.0, 0.0, 0.0, 0.0, 0.0, 0.0, 0.0, 0.0, 0.0, 0.0, 0.0, 0.0, 0.0, 0.0, 0.0, 0.0, 0.0, 0.0, 0.0, 0.0, 0.000625)"
1975/03/10/09:58:01.734749,161,163645081,706854000,map,-25907.6132812,-93180.7109375,0.583046972752,-0.0150340935865,0.0102567397862,0.830022185956,0.557433356933,"(0.0025, 0.0, 0.0, 0.0, 0.0, 0.0, 0.0, 0.0025095367431640626, 0.0, 0.0, 0.0, 0.0, 0.0, 0.0, 0.0, 0.0, 0.0, 0.0, 0.0, 0.0, 0.0, 0.0, 0.0, 0.0, 0.0, 0.0, 0.0, 0.0, 0.0, 0.0, 0.0, 0.0, 0.0, 0.0, 0.0, 0.000625)"
1975/03/10/09:58:01.831263,162,163645081,805854000,map,-25908.1914062,-93179.3203125,0.528476715088,-0.0178254805596,0.0119207034693,0.830592398351,0.556467752215,"(0.002502264976501465, 1.430511474609375e-06, 0.0, 0.0, 0.0, 0.0, 1.430511474609375e-06, 0.0025152587890625, 0.0, 0.0, 0.0, 0.0, 0.0, 0.0, 0.0, 0.0, 0.0, 0.0, 0.0, 0.0, 0.0, 0.0, 0.0, 0.0, 0.0, 0.0, 0.0, 0.0, 0.0, 0.0, 0.0, 0.0, 0.0, 0.0, 0.0, 0.000625)"
1975/03/10/09:58:01.927751,163,163645081,905854000,map,-25908.7597656,-93177.9296875,0.466905683279,-0.0204037094952,0.0137918475502,0.831330365914,0.555232673354,"(0.002500596046447754, 1.430511474609375e-06, 0.0, 0.0, 0.0, 0.0, 1.430511474609375e-06, 0.0025152587890625, 0.0, 0.0, 0.0, 0.0, 0.0, 0.0, 0.0, 0.0, 0.0, 0.0, 0.0, 0.0, 0.0, 0.0, 0.0, 0.0, 0.0, 0.0, 0.0, 0.0, 0.0, 0.0, 0.0, 0.0, 0.0, 0.0, 0.0, 0.000625)"
1975/03/10/09:58:02.032256,164,163645082,7854000,map,-25909.3417969,-93176.5234375,0.393053352833,-0.0214710670424,0.0139261767245,0.832086795298,0.554054631265,"(0.002507152557373047, 0.0, 0.0, 0.0, 0.0, 0.0, 0.0, 0.0025, 0.0, 0.0, 0.0, 0.0, 0.0, 0.0, 0.0, 0.0, 0.0, 0.0, 0.0, 0.0, 0.0, 0.0, 0.0, 0.0, 0.0, 0.0, 0.0, 0.0, 0.0, 0.0, 0.0, 0.0, 0.0, 0.0, 0.0, 0.000625)"
1975/03/10/09:58:02.128761,165,163645082,107854000,map,-25909.9394531,-93175.09375,0.309403240681,-0.0209851197905,0.0134317423161,0.832826590322,0.552972917339,"(0.002500476837158203, -9.5367431640625e-07, 0.0, 0.0, 0.0, 0.0, -9.5367431640625e-07, 0.0025095367431640626, 0.0, 0.0, 0.0, 0.0, 0.0, 0.0, 0.0, 0.0, 0.0, 0.0, 0.0, 0.0, 0.0, 0.0, 0.0, 0.0, 0.0, 0.0, 0.0, 0.0, 0.0, 0.0, 0.0, 0.0, 0.0, 0.0, 0.0, 0.000625)"
1975/03/10/09:58:02.225193,166,163645082,207854000,map,-25910.5390625,-93173.671875,0.23891569674,-0.0212768727325,0.013538416269,0.833554644707,0.551861103483,"(0.0025008344650268555, 1.9073486328125e-06, 0.0, 0.0, 0.0, 0.0, 1.9073486328125e-06, 0.0025095367431640626, 0.0, 0.0, 0.0, 0.0, 0.0, 0.0, 0.0, 0.0, 0.0, 0.0, 0.0, 0.0, 0.0, 0.0, 0.0, 0.0, 0.0, 0.0, 0.0, 0.0, 0.0, 0.0, 0.0, 0.0, 0.0, 0.0, 0.0, 0.000625)"
1975/03/10/09:58:02.329692,167,163645082,307854000,map,-25911.1484375,-93172.2578125,0.165158957243,-0.0227617374894,0.013871352382,0.834207502016,0.550806038211,"(0.0025007152557373047, 1.9073486328125e-06, 0.0, 0.0, 0.0, 0.0, 1.9073486328125e-06, 0.0025152587890625, 0.0, 0.0, 0.0, 0.0, 0.0, 0.0, 0.0, 0.0, 0.0, 0.0, 0.0, 0.0, 0.0, 0.0, 0.0, 0.0, 0.0, 0.0, 0.0, 0.0, 0.0, 0.0, 0.0, 0.0, 0.0, 0.0, 0.0, 0.000625)"
1975/03/10/09:58:02.434231,168,163645082,406853000,map,-25911.765625,-93170.796875,0.0767254009843,-0.0245085878663,0.0154541426988,0.834832776289,0.549740586008,"(0.002513113021850586, 0.0, 0.0, 0.0, 0.0, 0.0, 0.0, 0.0025, 0.0, 0.0, 0.0, 0.0, 0.0, 0.0, 0.0, 0.0, 0.0, 0.0, 0.0, 0.0, 0.0, 0.0, 0.0, 0.0, 0.0, 0.0, 0.0, 0.0, 0.0, 0.0, 0.0, 0.0, 0.0, 0.0, 0.0, 0.000625)"
1975/03/10/09:58:02.530728,169,163645082,507853000,map,-25912.3867188,-93169.375,-0.0102493204176,-0.0257951496473,0.016653769875,0.835604544387,0.548472720425,"(0.0025008344650268555, 3.814697265625e-06, 0.0, 0.0, 0.0, 0.0, 3.814697265625e-06, 0.0025133514404296876, 0.0, 0.0, 0.0, 0.0, 0.0, 0.0, 0.0, 0.0, 0.0, 0.0, 0.0, 0.0, 0.0, 0.0, 0.0, 0.0, 0.0, 0.0, 0.0, 0.0, 0.0, 0.0, 0.0, 0.0, 0.0, 0.0, 0.0, 0.000625)"
1975/03/10/09:58:02.627246,170,163645082,607853000,map,-25913.0214844,-93167.890625,-0.112021192908,-0.0252939266506,0.0161044401676,0.836580835137,0.547022207066,"(0.0025023841857910157, 3.814697265625e-06, 0.0, 0.0, 0.0, 0.0, 3.814697265625e-06, 0.0025152587890625, 0.0, 0.0, 0.0, 0.0, 0.0, 0.0, 0.0, 0.0, 0.0, 0.0, 0.0, 0.0, 0.0, 0.0, 0.0, 0.0, 0.0, 0.0, 0.0, 0.0, 0.0, 0.0, 0.0, 0.0, 0.0, 0.0, 0.0, 0.000625)"
1975/03/10/09:58:02.731801,171,163645082,707853000,map,-25913.6640625,-93166.4296875,-0.211502924562,-0.0230952286336,0.0148222607903,0.837487917047,0.545766381138,"(0.00250154972076416, -4.76837158203125e-07, 0.0, 0.0, 0.0, 0.0, -4.76837158203125e-07, 0.0025095367431640626, 0.0, 0.0, 0.0, 0.0, 0.0, 0.0, 0.0, 0.0, 0.0, 0.0, 0.0, 0.0, 0.0, 0.0, 0.0, 0.0, 0.0, 0.0, 0.0, 0.0, 0.0, 0.0, 0.0, 0.0, 0.0, 0.0, 0.0, 0.000625)"
1975/03/10/09:58:02.828266,172,163645082,807853000,map,-25914.3085938,-93164.9609375,-0.291126698256,-0.0233672285484,0.0136329341178,0.838042737705,0.544933421515,"(0.0025023841857910157, -4.76837158203125e-07, 0.0, 0.0, 0.0, 0.0, -4.76837158203125e-07, 0.0025152587890625, 0.0, 0.0, 0.0, 0.0, 0.0, 0.0, 0.0, 0.0, 0.0, 0.0, 0.0, 0.0, 0.0, 0.0, 0.0, 0.0, 0.0, 0.0, 0.0, 0.0, 0.0, 0.0, 0.0, 0.0, 0.0, 0.0, 0.0, 0.000625)"
1975/03/10/09:58:02.924789,173,163645082,906853000,map,-25914.953125,-93163.484375,-0.379969865084,-0.0252370251755,0.0149131060546,0.83855277285,0.544031057671,"(0.002502145767211914, 0.0, 0.0, 0.0, 0.0, 0.0, 0.0, 0.0025, 0.0, 0.0, 0.0, 0.0, 0.0, 0.0, 0.0, 0.0, 0.0, 0.0, 0.0, 0.0, 0.0, 0.0, 0.0, 0.0, 0.0, 0.0, 0.0, 0.0, 0.0, 0.0, 0.0, 0.0, 0.0, 0.0, 0.0, 0.000625)"
1975/03/10/09:58:03.029298,174,163645083,6853000,map,-25915.609375,-93162.0,-0.478671848774,-0.0256397265082,0.0152538412265,0.839081666809,0.543186754605,"(0.0025023841857910157, 2.384185791015625e-06, 0.0, 0.0, 0.0, 0.0, 2.384185791015625e-06, 0.0025152587890625, 0.0, 0.0, 0.0, 0.0, 0.0, 0.0, 0.0, 0.0, 0.0, 0.0, 0.0, 0.0, 0.0, 0.0, 0.0, 0.0, 0.0, 0.0, 0.0, 0.0, 0.0, 0.0, 0.0, 0.0, 0.0, 0.0, 0.0, 0.000625)"
1975/03/10/09:58:03.125760,175,163645083,105853000,map,-25916.2753906,-93160.515625,-0.580154120922,-0.0236933919704,0.0151346427985,0.839543085969,0.542565216394,"(0.0025035762786865235, 0.0, 0.0, 0.0, 0.0, 0.0, 0.0, 0.0025, 0.0, 0.0, 0.0, 0.0, 0.0, 0.0, 0.0, 0.0, 0.0, 0.0, 0.0, 0.0, 0.0, 0.0, 0.0, 0.0, 0.0, 0.0, 0.0, 0.0, 0.0, 0.0, 0.0, 0.0, 0.0, 0.0, 0.0, 0.000625)"
1975/03/10/09:58:03.230297,176,163645083,206853000,map,-25916.9550781,-93159.015625,-0.671346664429,-0.0227734594001,0.0142196568578,0.839722837358,0.542351138186,"(0.0025007152557373047, -1.9073486328125e-06, 0.0, 0.0, 0.0, 0.0, -1.9073486328125e-06, 0.0025152587890625, 0.0, 0.0, 0.0, 0.0, 0.0, 0.0, 0.0, 0.0, 0.0, 0.0, 0.0, 0.0, 0.0, 0.0, 0.0, 0.0, 0.0, 0.0, 0.0, 0.0, 0.0, 0.0, 0.0, 0.0, 0.0, 0.0, 0.0, 0.000625)"
1975/03/10/09:58:03.326793,177,163645083,305853000,map,-25917.640625,-93157.5,-0.759123384953,-0.0235520924937,0.0143999488923,0.839838775823,0.542133525943,"(0.0025025033950805665, 0.0, 0.0, 0.0, 0.0, 0.0, 0.0, 0.0025, 0.0, 0.0, 0.0, 0.0, 0.0, 0.0, 0.0, 0.0, 0.0, 0.0, 0.0, 0.0, 0.0, 0.0, 0.0, 0.0, 0.0, 0.0, 0.0, 0.0, 0.0, 0.0, 0.0, 0.0, 0.0, 0.0, 0.0, 0.000625)"
1975/03/10/09:58:03.431391,178,163645083,406853000,map,-25918.3359375,-93155.984375,-0.860518097878,-0.0242732080244,0.0161334185174,0.840005404839,0.541794557023,"(0.002502264976501465, 4.76837158203125e-07, 0.0, 0.0, 0.0, 0.0, 4.76837158203125e-07, 0.0025095367431640626, 0.0, 0.0, 0.0, 0.0, 0.0, 0.0, 0.0, 0.0, 0.0, 0.0, 0.0, 0.0, 0.0, 0.0, 0.0, 0.0, 0.0, 0.0, 0.0, 0.0, 0.0, 0.0, 0.0, 0.0, 0.0, 0.0, 0.0, 0.000625)"
1975/03/10/09:58:03.527938,179,163645083,505852000,map,-25919.0117188,-93154.484375,-0.958523094654,-0.025250214124,0.0161057772831,0.840382535898,0.541165603066,"(0.0025008344650268555, -2.86102294921875e-06, 0.0, 0.0, 0.0, 0.0, -2.86102294921875e-06, 0.0025133514404296876, 0.0, 0.0, 0.0, 0.0, 0.0, 0.0, 0.0, 0.0, 0.0, 0.0, 0.0, 0.0, 0.0, 0.0, 0.0, 0.0, 0.0, 0.0, 0.0, 0.0, 0.0, 0.0, 0.0, 0.0, 0.0, 0.0, 0.0, 0.000625)"
1975/03/10/09:58:03.632492,180,163645083,606852000,map,-25919.6992188,-93152.96875,-1.05828547478,-0.0257782857775,0.0162926756706,0.840764207683,0.540541968281,"(0.0025036954879760743, 0.0, 0.0, 0.0, 0.0, 0.0, 0.0, 0.0025, 0.0, 0.0, 0.0, 0.0, 0.0, 0.0, 0.0, 0.0, 0.0, 0.0, 0.0, 0.0, 0.0, 0.0, 0.0, 0.0, 0.0, 0.0, 0.0, 0.0, 0.0, 0.0, 0.0, 0.0, 0.0, 0.0, 0.0, 0.000625)"
1975/03/10/09:58:03.729049,181,163645083,706852000,map,-25920.3984375,-93151.4375,-1.16300737858,-0.0263571060529,0.0163682781146,0.841173455939,0.539874591581,"(0.0025030994415283204, -2.86102294921875e-06, 0.0, 0.0, 0.0, 0.0, -2.86102294921875e-06, 0.00250762939453125, 0.0, 0.0, 0.0, 0.0, 0.0, 0.0, 0.0, 0.0, 0.0, 0.0, 0.0, 0.0, 0.0, 0.0, 0.0, 0.0, 0.0, 0.0, 0.0, 0.0, 0.0, 0.0, 0.0, 0.0, 0.0, 0.0, 0.0, 0.000625)"
1975/03/10/09:58:03.825542,182,163645083,806852000,map,-25921.1074219,-93149.90625,-1.26894652843,-0.026225149138,0.0165549551784,0.841632000373,0.539160187481,"(0.0025008344650268555, 1.430511474609375e-06, 0.0, 0.0, 0.0, 0.0, 1.430511474609375e-06, 0.0025095367431640626, 0.0, 0.0, 0.0, 0.0, 0.0, 0.0, 0.0, 0.0, 0.0, 0.0, 0.0, 0.0, 0.0, 0.0, 0.0, 0.0, 0.0, 0.0, 0.0, 0.0, 0.0, 0.0, 0.0, 0.0, 0.0, 0.0, 0.0, 0.000625)"
1975/03/10/09:58:03.922049,183,163645083,906852000,map,-25921.7910156,-93148.421875,-1.37127423286,-0.0256848272936,0.0159532091033,0.842146343978,0.538400692969,"(0.0025007152557373047, -2.384185791015625e-06, 0.0, 0.0, 0.0, 0.0, -2.384185791015625e-06, 0.0025095367431640626, 0.0, 0.0, 0.0, 0.0, 0.0, 0.0, 0.0, 0.0, 0.0, 0.0, 0.0, 0.0, 0.0, 0.0, 0.0, 0.0, 0.0, 0.0, 0.0, 0.0, 0.0, 0.0, 0.0, 0.0, 0.0, 0.0, 0.0, 0.000625)"
1975/03/10/09:58:04.026576,184,163645084,6852000,map,-25922.4902344,-93146.9140625,-1.45876765251,-0.0259227921219,0.0145924931614,0.842453786008,0.537946658793,"(0.002500596046447754, -4.76837158203125e-07, 0.0, 0.0, 0.0, 0.0, -4.76837158203125e-07, 0.00250762939453125, 0.0, 0.0, 0.0, 0.0, 0.0, 0.0, 0.0, 0.0, 0.0, 0.0, 0.0, 0.0, 0.0, 0.0, 0.0, 0.0, 0.0, 0.0, 0.0, 0.0, 0.0, 0.0, 0.0, 0.0, 0.0, 0.0, 0.0, 0.000625)"
1975/03/10/09:58:04.123108,185,163645084,105852000,map,-25923.1855469,-93145.4140625,-1.55504798889,-0.0255061048878,0.014160859929,0.842638831039,0.537688238151,"(0.0025052452087402344, -5.245208740234375e-06, 0.0, 0.0, 0.0, 0.0, -5.245208740234375e-06, 0.0025095367431640626, 0.0, 0.0, 0.0, 0.0, 0.0, 0.0, 0.0, 0.0, 0.0, 0.0, 0.0, 0.0, 0.0, 0.0, 0.0, 0.0, 0.0, 0.0, 0.0, 0.0, 0.0, 0.0, 0.0, 0.0, 0.0, 0.0, 0.0, 0.000625)"
1975/03/10/09:58:04.227690,186,163645084,205852000,map,-25923.8945312,-93143.890625,-1.64973020554,-0.0259737202275,0.0136855601396,0.842868645335,0.537317922159,"(0.0025069141387939454, 4.76837158203125e-06, 0.0, 0.0, 0.0, 0.0, 4.76837158203125e-06, 0.002511444091796875, 0.0, 0.0, 0.0, 0.0, 0.0, 0.0, 0.0, 0.0, 0.0, 0.0, 0.0, 0.0, 0.0, 0.0, 0.0, 0.0, 0.0, 0.0, 0.0, 0.0, 0.0, 0.0, 0.0, 0.0, 0.0, 0.0, 0.0, 0.000625)"
1975/03/10/09:58:04.324220,187,163645084,305852000,map,-25924.5859375,-93142.390625,-1.73990833759,-0.0270798411249,0.0128870254015,0.843087314188,0.53693983003,"(0.00250607967376709, -1.239776611328125e-05, 0.0, 0.0, 0.0, 0.0, -1.239776611328125e-05, 0.0025247955322265626, 0.0, 0.0, 0.0, 0.0, 0.0, 0.0, 0.0, 0.0, 0.0, 0.0, 0.0, 0.0, 0.0, 0.0, 0.0, 0.0, 0.0, 0.0, 0.0, 0.0, 0.0, 0.0, 0.0, 0.0, 0.0, 0.0, 0.0, 0.000625)"
1975/03/10/09:58:04.428716,188,163645084,406852000,map,-25925.2910156,-93140.8671875,-1.84218978882,-0.0281448604308,0.0124236481969,0.84343446158,0.536350470103,"(0.00250154972076416, 0.0, 0.0, 0.0, 0.0, 0.0, 0.0, 0.0025, 0.0, 0.0, 0.0, 0.0, 0.0, 0.0, 0.0, 0.0, 0.0, 0.0, 0.0, 0.0, 0.0, 0.0, 0.0, 0.0, 0.0, 0.0, 0.0, 0.0, 0.0, 0.0, 0.0, 0.0, 0.0, 0.0, 0.0, 0.000625)"
1975/03/10/09:58:04.533276,189,163645084,506851000,map,-25926.0078125,-93139.3515625,-1.95567262173,-0.0289982744552,0.0135280481588,0.843709317969,0.535845702236,"(0.0025107288360595704, -2.4318695068359375e-05, 0.0, 0.0, 0.0, 0.0, -2.4318695068359375e-05, 0.002557220458984375, 0.0, 0.0, 0.0, 0.0, 0.0, 0.0, 0.0, 0.0, 0.0, 0.0, 0.0, 0.0, 0.0, 0.0, 0.0, 0.0, 0.0, 0.0, 0.0, 0.0, 0.0, 0.0, 0.0, 0.0, 0.0, 0.0, 0.0, 0.000625)"
